Time,Lat,Lon,Roll,Pitch,Yaw,Hight,PWM1,PWM2,PWM3,PWM4
0,0,0,-1.080033,-0.022738,0.541059
0,0,0,-2.129861,0.154178,1.107847
0,0,0,-2.589659,0.567997,2.114366
0,0,0,-2.482095,1.124063,3.145470
0,0,0,-1.601690,0.971967,3.918982
0,0,0,-1.309990,0.373320,4.882485
0,0,0,-0.838420,-0.258943,5.751602
0,0,0,-0.629772,-1.090459,6.561952
0,0,0,-0.698702,-2.106523,7.176865
0,0,0,-0.777944,-2.876666,8.066803
0,0,0,-1.334725,-3.298409,8.989576
0,0,0,-2.216902,-3.255887,9.750823
0,0,0,-2.210185,-2.844019,10.876416
0,0,0,-2.870617,-2.884538,11.833639
0,0,0,-3.002729,-2.211637,12.806824
0,0,0,-3.210487,-2.112397,13.947797
0,0,0,-3.448637,-1.513312,14.921901
0,0,0,-3.294857,-1.267533,16.042749
0,0,0,-3.130529,-0.776624,17.060995
0,0,0,-2.673198,-0.949455,18.083033
0,0,0,-2.413850,-0.697733,19.125954
0,0,0,-2.480945,-0.899330,20.198553
0,0,0,-2.203853,-0.754523,21.233917
0,0,0,-2.355668,-0.705746,22.245821
0,0,0,-1.526300,-0.598560,22.955246
0,0,0,-1.647137,-0.515603,23.949329
0,0,0,-1.616463,-0.613770,24.910873
0,0,0,-0.952906,-0.171436,25.576082
0,0,0,-1.061667,0.114360,26.146523
0,0,0,-0.590901,0.067292,26.861744
0,0,0,-0.736784,0.015023,27.547916
0,0,0,-0.941685,-0.266078,28.331158
0,0,0,-0.087108,0.146698,28.349567
0,0,0,-0.384875,0.275112,28.932436
0,0,0,0.172933,0.307199,29.391304
0,0,0,-0.382281,0.380676,29.819424
0,0,0,0.258517,0.326750,29.815332
0,0,0,-0.287037,0.240483,30.275417
0,0,0,0.388387,0.316282,30.458982
0,0,0,-0.210153,-0.019396,31.079412
0,0,0,0.425797,0.435865,30.792002
0,0,0,-0.111072,0.548443,31.050848
0,0,0,0.080051,0.476355,31.059258
0,0,0,-0.385992,-0.030445,31.317266
0,0,0,0.651038,0.276844,30.888853
0,0,0,-0.184134,0.795418,30.937601
0,0,0,-0.415309,0.286757,31.438753
0,0,0,-0.617140,0.450038,31.843830
0,0,0,0.338924,0.454090,31.668852
0,0,0,-0.315040,0.420200,32.218399
0,0,0,0.451367,0.424719,31.741308
0,0,0,0.345636,1.091970,31.204775
0,0,0,0.514535,0.185119,31.031219
0,0,0,0.641773,0.386912,30.730537
0,0,0,-0.013993,0.149301,31.074747
0,0,0,0.135233,0.933798,30.503757
0,0,0,-0.179868,0.430446,31.046009
0,0,0,0.143251,0.598593,31.247948
0,0,0,0.171981,0.397693,31.624775
0,0,0,0.513010,0.118465,31.516506
0,0,0,0.163679,0.368892,31.309532
0,0,0,0.363453,0.431669,31.276997
0,0,0,-0.198325,0.094886,31.417364
0,0,0,-0.182316,0.489794,31.764679
0,0,0,-0.105462,0.148547,32.093342
0,0,0,0.533847,0.407808,32.098602
0,0,0,0.407148,0.589343,31.714821
0,0,0,0.177112,0.089179,31.653265
0,0,0,0.068264,-0.035989,31.704218
0,0,0,0.429823,0.563414,30.892723
0,0,0,0.516344,0.571514,30.908972
0,0,0,1.549543,0.251603,30.977097
0,0,0,0.779042,0.682485,30.568918
0,0,0,-0.024415,0.566286,30.882652
0,0,0,0.781093,0.779906,30.576704
0,0,0,0.241056,0.206103,30.950506
0,0,0,-0.351657,-0.034009,31.302183
0,0,0,-0.171870,0.325377,31.346979
0,0,0,0.638713,0.538122,31.217291
0,0,0,-0.089063,0.063209,31.700413
0,0,0,-0.424335,0.089119,32.287079
0,0,0,0.148256,0.431789,32.011856
0,0,0,-0.076653,0.370892,32.437252
0,0,0,0.630508,0.709200,32.069111
0,0,0,-0.116148,0.494221,32.368828
0,0,0,-0.045373,0.233510,32.296299
0,0,0,-0.227287,0.073802,32.696899
0,0,0,0.109657,0.658924,32.473938
0,0,0,-0.332365,0.253586,33.032780
0,0,0,-0.334785,-0.113591,33.577354
0,0,0,-0.583360,0.215145,33.866573
0,0,0,-0.662157,-0.090971,34.396908
0,0,0,-0.780755,-0.160175,34.960125
0,0,0,0.035325,-0.014008,35.048817
0,0,0,0.229005,-0.287040,35.159737
0,0,0,0.361771,0.088440,35.066013
0,0,0,0.368221,-0.223628,35.276058
0,0,0,0.265072,0.041526,35.492729
0,0,0,0.484271,0.561284,35.306911
0,0,0,0.111463,0.313246,35.779518
0,0,0,0.310917,0.272445,36.200596
0,0,0,0.364672,0.575873,36.049057
0,0,0,-0.084359,0.227307,36.486622
0,0,0,0.696994,0.728427,35.893715
0,0,0,0.210909,0.401223,36.036903
0,0,0,-0.239693,0.211071,36.319866
0,0,0,0.237894,-0.205916,36.424084
0,0,0,0.388250,0.260435,36.318668
0,0,0,0.397796,0.459505,36.143387
0,0,0,0.031249,0.114168,36.249451
0,0,0,0.510089,0.240759,35.937775
0,0,0,0.918888,0.316199,35.546780
0,0,0,0.326719,0.590786,35.369770
0,0,0,-0.260741,0.312121,35.519958
0,0,0,0.492524,0.765539,35.425865
0,0,0,-0.206768,0.562343,35.895905
0,0,0,0.748362,0.694958,35.366421
0,0,0,0.209168,0.251649,35.581856
0,0,0,-0.102974,-0.130023,36.057903
0,0,0,-0.129768,0.163641,36.368538
0,0,0,0.205169,0.783298,35.716431
0,0,0,0.130498,0.182456,36.151707
0,0,0,0.221443,0.130984,36.408825
0,0,0,0.086894,0.192854,36.629944
0,0,0,0.057387,0.246420,36.904270
0,0,0,-0.050610,0.059531,37.213516
0,0,0,0.045704,-0.289855,37.441463
0,0,0,-0.308545,-0.311910,37.994633
0,0,0,-0.334519,-0.238239,38.379173
0,0,0,-0.170584,-0.035323,38.651470
0,0,0,0.402815,0.135183,38.485367
0,0,0,0.205089,-0.084770,38.483234
0,0,0,0.385611,-0.215170,38.458042
0,0,0,0.121258,-0.317875,38.917850
0,0,0,-0.097385,-0.028681,39.311123
0,0,0,-0.196163,0.021740,39.722767
0,0,0,0.312314,0.147997,39.565765
0,0,0,0.073479,0.181665,39.906567
0,0,0,0.105565,0.288707,39.984108
0,0,0,-0.249932,-0.144209,40.362572
0,0,0,0.040698,0.311832,40.322338
0,0,0,0.250814,-0.007223,40.376656
0,0,0,-0.201482,0.238064,40.586269
0,0,0,-0.266048,0.102186,40.692810
0,0,0,0.390472,0.441984,40.356930
0,0,0,0.478250,-0.291225,40.566029
0,0,0,0.598192,-0.538418,40.343643
0,0,0,0.147444,-0.068149,40.369171
0,0,0,-0.289558,0.227772,40.616615
0,0,0,-0.417042,0.600511,40.716476
0,0,0,-0.655895,0.690312,40.720840
0,0,0,0.073156,0.848494,40.273422
0,0,0,0.454577,1.021917,39.721252
0,0,0,0.769896,0.998566,38.727425
0,0,0,1.129717,0.155155,38.416702
0,0,0,0.765564,0.750334,38.149681
0,0,0,1.069004,1.269767,37.318390
0,0,0,0.533417,0.732358,37.143677
0,0,0,0.323839,0.826712,36.582073
0,0,0,1.085483,0.858749,35.738003
0,0,0,0.993064,0.254267,35.083771
0,0,0,0.198111,0.279728,34.909328
0,0,0,0.338011,0.032108,34.691570
0,0,0,1.148154,0.188178,34.051647
0,0,0,1.243845,0.470872,33.052692
0,0,0,1.075327,-0.131075,32.617764
0,0,0,1.389565,-1.191497,32.159824
0,0,0,1.692858,-0.241119,31.492779
0,0,0,1.149643,0.615984,30.889383
0,0,0,0.467921,1.217039,30.293798
0,0,0,1.032549,0.582525,29.546213
0,0,0,0.212761,0.743128,29.157928
0,0,0,0.752001,0.980303,28.089886
0,0,0,0.745310,0.395385,27.319633
0,0,0,0.416459,0.781791,26.654345
0,0,0,0.073012,1.289655,26.060925
0,0,0,0.295994,1.685503,25.466143
0,0,0,0.163669,0.610766,25.527382
0,0,0,0.822767,0.388475,24.930222
0,0,0,0.087337,1.074344,24.840548
0,0,0,0.973969,0.558907,24.280582
0,0,0,0.140518,0.321127,24.312164
0,0,0,0.160929,0.971023,23.675678
0,0,0,0.925822,0.943810,23.088770
0,0,0,0.211456,0.149713,22.934044
0,0,0,0.547282,0.976346,22.538370
0,0,0,-0.082759,0.112267,22.568169
0,0,0,-0.034934,-0.332623,22.995781
0,0,0,-0.341830,0.352620,23.302275
0,0,0,0.200192,-0.155315,22.821363
0,0,0,-0.465834,0.073283,23.523308
0,0,0,0.316901,0.840517,23.419590
0,0,0,-0.291341,0.270509,23.180706
0,0,0,0.667457,0.625264,22.559561
0,0,0,-0.271096,0.335852,22.722664
0,0,0,0.187510,0.315548,23.266006
0,0,0,-0.609865,0.241370,23.709869
0,0,0,0.440728,0.599747,23.200369
0,0,0,-0.701898,0.733207,23.014118
0,0,0,-0.427507,1.887285,22.938761
0,0,0,-0.242309,0.789343,23.247623
0,0,0,0.274907,-0.148319,23.304747
0,0,0,0.945355,0.335366,22.451143
0,0,0,-0.042904,0.867728,22.673388
0,0,0,0.364286,1.261253,21.805510
0,0,0,0.140774,0.345033,21.561985
0,0,0,-0.306192,1.195044,21.244068
0,0,0,0.607422,0.801844,20.575016
0,0,0,0.170521,1.358881,19.843271
0,0,0,0.965971,0.709418,19.204157
0,0,0,0.823076,-0.032447,18.280222
0,0,0,-0.069175,0.018163,18.673044
0,0,0,0.599952,-0.901964,18.247532
0,0,0,1.007495,0.156399,17.820536
0,0,0,-0.071167,0.634443,18.031061
0,0,0,0.843046,0.613666,17.227163
0,0,0,-0.181119,1.048077,16.984833
0,0,0,0.763976,0.470895,16.781227
0,0,0,-0.267839,0.415672,16.604002
0,0,0,0.673889,0.573628,16.378330
0,0,0,-0.154608,-0.150110,16.669386
0,0,0,0.823833,0.436029,16.260441
0,0,0,0.044630,-0.033827,15.627601
0,0,0,-0.210284,0.513520,16.323275
0,0,0,-0.695557,0.130451,16.865112
0,0,0,0.345949,0.657793,16.527863
0,0,0,-0.577083,-0.054530,16.393740
0,0,0,0.442759,0.539750,16.118198
0,0,0,-0.506238,0.128121,16.578577
0,0,0,0.651614,0.320053,16.623507
0,0,0,-0.459223,0.514581,16.926470
0,0,0,0.520953,0.706777,16.258373
0,0,0,-0.422011,0.443414,15.773730
0,0,0,0.679306,0.405160,15.240990
0,0,0,-0.125724,-0.225576,15.680033
0,0,0,-0.021040,0.850957,15.345891
0,0,0,-0.414752,0.221512,16.158607
0,0,0,-0.080626,1.334993,16.285881
0,0,0,0.162391,0.236460,16.451969
0,0,0,1.112920,0.637293,15.798941
0,0,0,0.054238,0.066388,15.843510
0,0,0,0.813764,0.578598,15.035395
0,0,0,-0.251528,0.312968,15.462873
0,0,0,0.711884,0.634842,15.737760
0,0,0,-0.417033,0.576440,15.970898
0,0,0,0.618097,0.942525,15.437222
0,0,0,0.420690,0.276128,14.449390
0,0,0,-0.299456,0.808775,14.860852
0,0,0,0.657032,0.174384,14.689692
0,0,0,-0.247685,0.312271,14.306247
0,0,0,0.524652,0.966537,14.283832
0,0,0,-0.130813,0.039337,14.334920
0,0,0,0.733384,0.695954,13.774744
0,0,0,-0.198913,0.559066,14.495481
0,0,0,0.818937,0.803114,13.861048
0,0,0,-0.327348,0.411676,13.828754
0,0,0,0.281933,1.362226,13.436460
0,0,0,-0.273489,0.330768,13.593156
0,0,0,0.780501,0.558151,13.031668
0,0,0,-0.303103,0.363064,13.406172
0,0,0,0.565026,-0.030043,13.942256
0,0,0,0.583026,1.028115,13.345700
0,0,0,-0.421408,0.405154,13.235149
0,0,0,0.644789,0.760548,12.797077
0,0,0,-0.526352,0.934470,12.924523
0,0,0,0.571857,0.517553,12.579810
0,0,0,-0.565072,0.540829,12.981008
0,0,0,0.511009,0.342351,12.434935
0,0,0,-0.471404,1.043473,12.527623
0,0,0,-0.436047,0.182072,13.327054
0,0,0,0.449655,0.589889,13.909003
0,0,0,1.103306,0.306813,12.920341
0,0,0,-0.038173,0.564712,13.230227
0,0,0,0.894819,0.630871,12.445662
0,0,0,-0.212802,0.878667,12.867634
0,0,0,0.608996,0.014960,12.660419
0,0,0,-0.087279,0.691371,13.307682
0,0,0,0.619597,0.903470,12.324188
0,0,0,-0.167049,0.128097,12.791368
0,0,0,0.938688,0.334525,12.315238
0,0,0,-0.137446,0.757200,12.008114
0,0,0,0.060286,0.317848,12.755977
0,0,0,0.822674,0.379725,11.800621
0,0,0,-0.326836,0.669765,12.035873
0,0,0,-0.022819,-0.059630,12.763500
0,0,0,0.170690,1.089811,12.471815
0,0,0,-0.319691,0.017368,12.411463
0,0,0,0.612928,0.678881,11.979476
0,0,0,0.260886,-0.305340,11.490659
0,0,0,0.859179,0.512496,10.808792
0,0,0,-0.312555,0.237969,10.994961
0,0,0,0.588100,1.003556,11.057587
0,0,0,-0.338224,0.319680,11.416183
0,0,0,0.666320,0.948570,11.251408
0,0,0,-0.523377,0.969868,11.510109
0,0,0,0.399772,0.980800,10.695104
0,0,0,-0.532095,0.232679,10.868871
0,0,0,0.317194,0.740358,10.148629
0,0,0,-0.253848,0.293434,11.087870
0,0,0,0.812214,0.052113,10.540012
0,0,0,-0.114894,0.324685,11.260071
0,0,0,1.010833,0.141703,10.824351
0,0,0,-0.014353,0.566621,11.315007
0,0,0,-0.625028,0.268448,10.861688
0,0,0,0.318023,0.709978,10.216755
0,0,0,-0.699431,0.347364,10.719533
0,0,0,0.411785,0.530062,10.235322
0,0,0,1.075483,0.206394,9.262150
0,0,0,-0.095869,0.390712,9.549148
0,0,0,0.909139,0.803412,8.983915
0,0,0,0.129167,0.135824,8.333499
0,0,0,1.160418,0.782003,8.249731
0,0,0,0.120053,0.428708,8.788288
0,0,0,0.814454,0.357287,9.709919
0,0,0,0.952600,0.160993,8.510467
0,0,0,-0.233177,0.171660,8.795330
0,0,0,0.683438,0.861761,8.370421
0,0,0,-0.244568,0.359337,8.981251
0,0,0,0.659277,0.778471,8.262394
0,0,0,-0.455103,0.581904,8.729753
0,0,0,-1.223999,0.419597,9.640625
0,0,0,-0.158172,0.420211,9.038302
0,0,0,0.850231,0.665547,8.428381
0,0,0,0.590884,1.679155,7.815638
0,0,0,-0.012034,0.666870,8.139575
0,0,0,1.084206,0.362454,7.688135
0,0,0,0.063443,0.112798,8.308966
0,0,0,0.916702,0.592226,8.894761
0,0,0,-0.295100,0.465753,8.850354
0,0,0,0.522862,0.030584,8.058991
0,0,0,-0.020864,1.116112,7.991617
0,0,0,-0.210156,0.033496,7.465508
0,0,0,0.538589,0.848406,7.946767
0,0,0,-0.123602,0.125666,8.664455
0,0,0,1.033455,0.073692,8.277472
0,0,0,-0.123645,0.455911,8.357436
0,0,0,0.588731,0.737931,7.407423
0,0,0,-0.562583,0.336782,7.365300
0,0,0,0.617376,0.576081,7.546400
0,0,0,-0.104526,0.061391,8.377767
0,0,0,0.954454,0.329213,7.822702
0,0,0,1.326942,0.750305,6.733417
0,0,0,0.201464,0.481337,7.143990
0,0,0,-0.542889,0.157313,7.977120
0,0,0,0.465711,0.098560,7.288027
0,0,0,-0.519584,0.720678,6.934538
0,0,0,0.305433,-0.164630,6.984375
0,0,0,-0.644891,0.563583,7.206078
0,0,0,0.378235,-0.073984,7.385650
0,0,0,-0.212360,0.056363,8.429193
0,0,0,0.759662,0.747467,8.632205
0,0,0,0.045330,0.084403,7.901556
0,0,0,0.626568,0.588620,6.952652
0,0,0,-0.473843,0.379114,7.442169
0,0,0,0.623245,0.878240,7.259119
0,0,0,-0.582332,0.956230,7.098870
0,0,0,0.346909,0.472085,6.457713
0,0,0,0.591055,-0.699956,6.284558
0,0,0,-0.012437,0.345151,6.460503
0,0,0,-0.569363,1.253762,5.885612
0,0,0,0.493053,0.651607,5.839638
0,0,0,-0.521149,0.485161,6.507224
0,0,0,0.522224,0.608590,5.870533
0,0,0,-0.446675,1.049896,5.283890
0,0,0,0.658830,0.784375,4.826368
0,0,0,-0.240647,-0.038936,4.882320
0,0,0,0.488899,0.910089,5.104124
0,0,0,-0.403242,0.320733,5.704619
0,0,0,0.524757,0.848031,6.266834
0,0,0,-0.138295,-0.171490,6.336417
0,0,0,0.531142,0.745697,5.888849
0,0,0,0.398685,-0.385072,5.460859
0,0,0,-0.259623,0.641375,5.511449
0,0,0,-0.468317,-0.557306,5.546189
0,0,0,0.018894,0.491397,5.932148
0,0,0,1.192382,0.506925,5.584407
0,0,0,0.012287,0.511046,5.919674
0,0,0,-0.938804,0.225965,6.632069
0,0,0,0.124580,0.786574,6.825624
0,0,0,0.921867,0.141756,6.157004
0,0,0,-0.193826,0.259357,6.640621
0,0,0,-0.021508,1.348526,6.124578
0,0,0,0.742247,0.492658,5.699653
0,0,0,-0.172524,1.270153,5.552301
0,0,0,0.411854,0.262262,5.181802
0,0,0,1.064177,0.675817,4.228228
0,0,0,0.011325,0.357171,4.768301
0,0,0,-0.159024,-0.313690,5.765293
0,0,0,0.788441,0.125398,5.134054
0,0,0,-0.145923,0.909565,5.230381
0,0,0,0.692492,0.518449,4.420416
0,0,0,-0.473765,0.268666,4.157734
0,0,0,-0.233025,0.843940,5.195590
0,0,0,0.448158,0.112984,4.486204
0,0,0,0.868041,1.242003,4.301198
0,0,0,-0.148155,0.594364,4.529330
0,0,0,0.606400,1.246416,3.815842
0,0,0,0.644167,0.400241,2.939309
0,0,0,-0.244474,-0.390142,2.673631
0,0,0,-0.880674,0.171265,3.553659
0,0,0,0.215451,0.068650,3.024524
0,0,0,-0.228514,0.958383,3.737077
0,0,0,-1.007951,0.452566,4.540122
0,0,0,0.155172,0.442619,4.157663
0,0,0,0.592264,1.170274,3.277162
0,0,0,0.132822,0.090322,3.618439
0,0,0,1.053144,0.518998,2.934977
0,0,0,-0.089395,0.541460,2.512722
0,0,0,0.754346,0.562159,1.620564
0,0,0,-0.088049,1.442438,1.702600
0,0,0,-0.413709,0.293150,1.458559
0,0,0,0.553917,1.034426,1.524524
0,0,0,-0.134296,0.084664,1.875156
0,0,0,-0.295543,1.166806,2.419020
0,0,0,0.643614,0.433895,2.138640
0,0,0,-0.514576,0.298159,2.518963
0,0,0,0.589006,0.353415,1.989273
0,0,0,-0.364298,1.112450,1.922198
0,0,0,0.661340,0.485951,2.132869
0,0,0,-0.529862,0.429730,1.865677
0,0,0,0.552732,0.520144,2.418627
0,0,0,0.468038,-0.005420,1.319554
0,0,0,-0.417143,0.737785,1.718127
0,0,0,0.670058,0.325269,1.328305
0,0,0,-0.522650,0.488412,1.546343
0,0,0,0.663632,0.368094,1.265117
0,0,0,-0.298133,0.019826,1.941195
0,0,0,0.567224,0.724074,1.438552
0,0,0,0.114940,0.764965,0.309313
0,0,0,-0.828990,0.779520,1.100603
0,0,0,0.280985,0.492981,0.661832
0,0,0,-0.369377,0.232097,1.666080
0,0,0,0.719594,0.549417,1.202338
0,0,0,-0.295113,0.350435,1.865889
0,0,0,0.711343,0.610837,1.214447
0,0,0,-0.481012,0.714360,1.479439
0,0,0,0.611296,0.284821,1.130446
0,0,0,-0.232479,1.000561,1.657078
0,0,0,0.569242,0.084098,1.745695
0,0,0,-0.457181,0.563501,2.211357
0,0,0,0.430439,1.251961,2.676324
0,0,0,-0.017921,0.118589,2.709989
0,0,0,0.247534,0.972888,1.874771
0,0,0,-0.331333,1.214941,2.932402
0,0,0,0.649951,0.737281,2.364042
0,0,0,0.179845,0.465643,1.271679
0,0,0,-0.570765,0.096563,2.168384
0,0,0,0.493789,0.321214,1.608142
0,0,0,-0.579891,0.829535,1.912238
0,0,0,0.302872,0.104772,1.472000
0,0,0,0.229971,1.321693,1.491894
0,0,0,-0.244366,0.208608,1.661269
0,0,0,-0.066134,1.356416,2.031029
0,0,0,0.571678,0.317079,2.029189
0,0,0,-0.530981,-0.093810,1.700340
0,0,0,-0.312836,0.790895,2.511950
0,0,0,0.637434,0.459771,1.803802
0,0,0,-0.097516,0.956889,2.653804
0,0,0,0.890992,0.747836,1.950218
0,0,0,-0.307167,0.673994,2.200120
0,0,0,0.888179,0.914268,2.266660
0,0,0,0.132582,0.050911,1.858421
0,0,0,-0.719406,0.342436,2.687232
0,0,0,0.419289,0.611089,2.318142
0,0,0,1.045068,0.192314,1.351281
0,0,0,-0.140601,0.419132,1.554885
0,0,0,0.511071,-0.421714,2.154607
0,0,0,-0.122935,0.599360,2.367411
0,0,0,0.965207,0.383735,1.840626
0,0,0,-0.257235,0.442056,1.867357
0,0,0,0.608681,0.484907,0.996393
0,0,0,-0.380159,1.191485,1.130976
0,0,0,0.131288,0.086794,1.041937
0,0,0,-0.247876,1.018389,1.738063
0,0,0,-0.171483,-0.068874,2.285434
0,0,0,0.686015,0.593923,1.720959
0,0,0,-0.528499,0.698065,1.624361
0,0,0,0.677189,0.591657,1.437816
0,0,0,-0.425694,0.806523,1.936817
0,0,0,0.639363,0.371243,2.336585
0,0,0,0.966193,0.982580,1.327189
0,0,0,-0.137394,0.596155,1.703917
0,0,0,-0.716019,0.210609,2.712808
0,0,0,0.289790,0.901673,2.641366
0,0,0,-0.700272,0.289259,3.020064
0,0,0,0.333318,0.538468,2.409974
0,0,0,1.387454,-0.037270,2.176634
0,0,0,0.190869,-0.276170,2.103147
0,0,0,0.326105,0.792143,1.526685
0,0,0,-0.633706,0.733864,2.296704
0,0,0,0.475726,0.221711,2.344160
0,0,0,-0.400294,-0.081599,3.140820
0,0,0,0.262803,0.942644,3.121869
0,0,0,-0.480521,0.064219,3.537553
0,0,0,-0.343706,1.093125,4.168715
0,0,0,0.670774,0.688831,3.602825
0,0,0,-0.527274,0.653961,3.374078
0,0,0,0.455381,0.735732,2.637719
0,0,0,0.001095,0.155767,1.666867
0,0,0,0.872930,0.532952,0.892171
0,0,0,-0.273593,0.437497,1.318907
0,0,0,0.662333,0.808276,2.006024
0,0,0,-0.362039,0.167347,1.838677
0,0,0,0.504374,0.799822,2.417457
0,0,0,-0.580336,0.574690,2.949073
0,0,0,0.298073,0.373859,3.765583
0,0,0,0.351114,1.437730,3.170167
0,0,0,1.133188,0.815097,2.453282
0,0,0,0.016130,0.447989,2.798713
0,0,0,0.860648,0.220362,1.938546
0,0,0,-0.281633,0.350973,2.362623
0,0,0,0.706037,0.470521,3.064540
0,0,0,0.074822,0.970094,2.151288
0,0,0,0.289823,0.105072,1.314344
0,0,0,-0.621455,0.828971,1.695497
0,0,0,0.563999,0.576522,1.508636
0,0,0,-0.578208,0.487793,1.949935
0,0,0,-0.205331,-0.134694,2.928697
0,0,0,0.495479,0.865323,2.918147
0,0,0,-0.305780,0.042181,3.339671
0,0,0,0.572559,0.694685,2.788977
0,0,0,-0.479520,0.248642,3.230927
0,0,0,0.554373,0.898013,3.158354
0,0,0,-0.661788,0.816031,3.081430
0,0,0,0.517920,0.627900,2.801815
0,0,0,-0.587020,1.081135,3.077481
0,0,0,0.468906,0.473358,3.152003
0,0,0,1.108037,0.396814,2.107053
0,0,0,-0.074705,0.308200,2.409900
0,0,0,0.075460,1.516731,2.464609
0,0,0,0.712873,0.574807,2.007097
0,0,0,-0.500674,0.541836,1.863086
0,0,0,0.581085,0.947094,1.445356
0,0,0,-0.370321,0.620463,2.154369
0,0,0,0.437341,0.572020,1.226790
0,0,0,0.673125,-0.032818,0.190805
0,0,0,-0.170091,0.789430,0.518569
0,0,0,-0.497148,0.985857,1.686122
0,0,0,-0.725957,0.143246,2.540178
0,0,0,0.341007,0.398611,1.991621
0,0,0,0.445568,0.316496,0.774984
0,0,0,-0.657074,0.788414,1.017838
0,0,0,0.121350,0.065848,1.614975
0,0,0,0.096923,1.260443,1.374720
0,0,0,-0.549093,0.498321,2.088006
0,0,0,0.673093,0.540792,2.112765
0,0,0,0.079899,1.568858,1.834517
0,0,0,0.655457,0.536689,1.515026
0,0,0,-0.544624,0.411423,1.727156
0,0,0,0.544929,0.716663,1.251297
0,0,0,-0.540185,0.216438,1.514269
0,0,0,0.403258,0.975046,1.676289
0,0,0,-0.700395,0.575397,2.036576
0,0,0,0.432494,0.614601,1.567314
0,0,0,-0.333561,-0.032840,0.874202
0,0,0,0.569844,0.786357,0.792499
0,0,0,0.324135,0.109025,-0.191339
0,0,0,-0.684033,0.607807,0.291479
0,0,0,0.419028,0.306765,-0.154838
0,0,0,-0.539559,0.544642,0.574549
0,0,0,0.567695,0.461233,1.076457
0,0,0,0.742086,0.442131,-0.135561
0,0,0,-0.275040,0.455595,0.550659
0,0,0,0.701804,0.889213,-0.057751
0,0,0,-0.232832,0.220985,0.365554
0,0,0,0.520491,1.175900,0.254596
0,0,0,-0.607194,0.776143,0.523729
0,0,0,0.509858,0.551371,0.067209
0,0,0,-0.694470,0.394999,0.222579
0,0,0,0.400595,0.937265,0.246334
0,0,0,-0.601575,0.283585,0.508606
0,0,0,0.509194,0.620044,0.112676
0,0,0,-0.480098,1.327072,0.258996
0,0,0,0.492246,0.794248,-0.271712
0,0,0,-0.347658,1.603605,-0.613430
0,0,0,0.552374,0.830951,-0.921850
0,0,0,-0.533655,0.433208,-0.511952
0,0,0,0.485720,0.574069,-1.184786
0,0,0,-0.548870,0.661963,-0.526710
0,0,0,0.504701,0.605111,-1.159279
0,0,0,-0.431189,0.840775,-0.395181
0,0,0,0.659721,0.521944,-0.857560
0,0,0,-0.406866,0.349896,-0.276867
0,0,0,-1.156284,0.481083,0.684968
0,0,0,0.066758,0.479919,0.713577
0,0,0,1.066143,0.676934,0.024198
0,0,0,-0.132324,0.763400,0.266270
0,0,0,0.659579,0.459491,-0.624922
0,0,0,0.708100,0.773985,-1.807032
0,0,0,0.978135,0.381415,-2.935297
0,0,0,-0.107943,0.377622,-2.365563
0,0,0,-0.684251,0.589719,-1.303789
0,0,0,-0.312209,0.678727,-0.145129
0,0,0,0.729143,0.698904,-0.797441
0,0,0,0.112953,0.711042,-1.847169
0,0,0,-0.829036,0.559354,-1.068076
0,0,0,0.373757,0.385348,-1.214829
0,0,0,-0.536707,0.844633,-0.529787
0,0,0,0.475320,0.287561,-0.939958
0,0,0,-0.404960,1.070601,-1.255648
0,0,0,0.537366,0.405932,-1.674673
0,0,0,-0.608025,0.800495,-1.493780
0,0,0,-0.811821,0.463981,-0.334081
0,0,0,0.401875,0.623030,-0.347194
0,0,0,-0.754618,0.297927,-0.111573
0,0,0,0.426886,0.600210,-0.202294
0,0,0,-0.601829,0.909342,0.394261
0,0,0,0.415016,0.253730,0.559325
0,0,0,-0.662578,0.669759,0.972386
0,0,0,0.452683,0.826293,0.481870
0,0,0,-0.569403,0.690327,1.155397
0,0,0,0.456182,0.433938,0.528246
0,0,0,-0.093298,0.400347,-0.559028
0,0,0,-0.837141,0.182239,0.390277
0,0,0,0.175405,0.573914,-0.180537
0,0,0,-0.094358,1.496836,0.576174
0,0,0,0.340026,0.422183,0.188535
0,0,0,1.005479,0.512411,-0.840153
0,0,0,-0.024965,0.335251,-0.196912
0,0,0,-0.113579,1.347521,0.481885
0,0,0,0.642057,0.869076,-0.367461
0,0,0,1.160132,0.339288,-1.344016
0,0,0,-0.010752,0.529904,-1.034634
0,0,0,-0.559353,0.611447,0.062243
0,0,0,0.554722,0.390971,-0.400564
0,0,0,-0.402445,0.635495,-1.114832
0,0,0,-0.363245,-0.193851,-0.219106
0,0,0,-0.042855,0.966760,-0.020971
0,0,0,0.912781,0.806720,-0.783506
0,0,0,0.841121,0.549899,-1.974870
0,0,0,-0.221918,0.352317,-1.396902
0,0,0,-0.148953,0.370464,-0.176186
0,0,0,1.001968,0.707285,-0.424301
0,0,0,-0.170069,0.395230,-0.257770
0,0,0,-0.364915,-0.056362,0.862004
0,0,0,0.537675,0.598733,0.357023
0,0,0,-0.628245,0.809236,0.070547
0,0,0,0.518047,0.511076,-0.243968
0,0,0,0.712511,0.933211,-1.376669
0,0,0,-0.323638,0.541342,-0.846706
0,0,0,0.687909,0.240702,-1.470103
0,0,0,0.314907,0.576551,-2.581295
0,0,0,-0.157171,1.079340,-1.566293
0,0,0,-0.743763,0.239878,-0.892347
0,0,0,0.297954,0.365893,-1.527480
0,0,0,-0.523729,1.059842,-0.937745
0,0,0,0.588109,0.556899,-1.041653
0,0,0,0.884111,1.595119,-1.616123
0,0,0,0.023775,0.746617,-1.426918
0,0,0,-0.546805,0.103636,-0.554600
0,0,0,0.522529,0.696166,-0.599377
0,0,0,-0.496739,0.488562,0.053626
0,0,0,0.561628,0.430192,-0.563366
0,0,0,0.944591,0.328767,-1.723361
0,0,0,-0.161199,0.826262,-1.865797
0,0,0,-0.861720,0.664328,-0.867231
0,0,0,0.311612,0.380124,-0.681997
0,0,0,-0.728701,0.586892,-0.065690
0,0,0,0.406610,0.136071,-0.043968
0,0,0,-0.750465,0.528664,-0.074149
0,0,0,0.352060,0.496480,-0.612917
0,0,0,-0.559907,0.414755,0.205205
0,0,0,0.561153,0.642694,-0.236268
0,0,0,-0.481774,0.292582,-0.759868
0,0,0,0.658413,0.370706,-1.205729
0,0,0,-0.356078,0.929424,-0.802004
0,0,0,0.393011,-0.026948,-0.930766
0,0,0,0.180961,0.893231,-1.700928
0,0,0,-0.680357,0.111364,-2.063328
0,0,0,-0.047158,1.010208,-1.535987
0,0,0,-0.372459,-0.113871,-1.188631
0,0,0,0.134830,0.967452,-0.941188
0,0,0,-0.367743,-0.116636,-1.187078
0,0,0,0.648736,0.446333,-1.568859
0,0,0,-0.545618,0.435360,-1.293877
0,0,0,0.471434,0.937403,-0.849491
0,0,0,-0.595801,0.664146,-0.305175
0,0,0,0.501772,0.661014,-0.858645
0,0,0,-0.483340,0.364363,-0.189727
0,0,0,0.668213,0.441324,-0.606532
0,0,0,-0.472414,0.627443,-0.997897
0,0,0,0.681521,0.629287,-1.419488
0,0,0,0.347867,0.710929,-2.588466
0,0,0,-0.561568,0.437723,-1.810455
0,0,0,0.433805,0.508941,-2.526032
0,0,0,-0.588971,0.602387,-1.851320
0,0,0,0.338475,0.968167,-1.154136
0,0,0,-0.402047,0.046995,-0.845390
0,0,0,-0.353109,1.256322,-0.698013
0,0,0,0.730116,0.937735,-1.191843
0,0,0,0.715885,0.014207,-1.988362
0,0,0,-0.163185,0.778447,-1.611450
0,0,0,0.958090,0.666221,-1.147907
0,0,0,-0.178423,0.593565,-0.688504
0,0,0,-0.695077,0.708820,0.419660
0,0,0,0.465795,0.326396,0.472523
0,0,0,0.598311,0.049209,-0.712948
0,0,0,-0.217707,0.905959,-0.407880
0,0,0,0.522136,-0.065121,-0.391925
0,0,0,0.134157,1.084696,-0.505050
0,0,0,0.593615,0.019065,-0.888032
0,0,0,-0.264379,0.875792,-1.020014
0,0,0,0.686050,0.119731,-0.885596
0,0,0,-0.305845,0.718898,-0.492296
0,0,0,-0.305575,-0.073815,0.439077
0,0,0,0.482638,0.578799,-0.231131
0,0,0,-0.546742,0.953265,0.328319
0,0,0,0.421690,0.229083,0.138474
0,0,0,-0.519979,1.005228,0.184298
0,0,0,0.465026,0.358158,-0.149064
0,0,0,0.210879,1.544508,-0.267185
0,0,0,0.260245,0.373007,-0.599671
0,0,0,-0.473295,1.163820,-0.018696
0,0,0,0.420051,0.636476,-0.681898
0,0,0,1.080539,0.998210,-1.653488
0,0,0,-0.052206,0.681298,-1.302722
0,0,0,-0.632467,0.018293,-0.454023
0,0,0,0.317447,0.766385,-0.630899
0,0,0,0.996968,0.596510,-1.640421
0,0,0,-0.081151,0.423907,-1.081894
0,0,0,-0.548522,0.425757,0.052654
0,0,0,0.626282,0.486149,-0.296613
0,0,0,-0.507588,0.631548,0.152394
0,0,0,0.523897,0.742137,-0.509764
0,0,0,-0.576762,0.489686,-0.026198
0,0,0,0.441816,0.527307,-0.710799
0,0,0,-0.759210,0.358320,-0.548598
0,0,0,-0.281183,0.777761,0.491826
0,0,0,0.855025,0.594389,0.060530
0,0,0,-0.255299,0.267553,0.464530
0,0,0,0.285817,1.213598,1.005583
0,0,0,0.283441,0.196707,0.332047
0,0,0,-0.592589,1.003792,0.610761
0,0,0,0.539294,0.784954,0.183412
0,0,0,0.092391,0.758881,-0.950083
0,0,0,-0.392697,1.147900,0.110846
0,0,0,0.485508,0.390594,-0.284783
0,0,0,-0.468444,1.130168,-0.459132
0,0,0,0.020037,0.454596,0.426721
0,0,0,-0.747670,1.009465,1.207281
0,0,0,0.304977,0.719983,0.642394
0,0,0,1.119951,0.251049,-0.147791
0,0,0,0.036111,0.756645,-0.397501
0,0,0,-0.704702,-0.208591,-0.495140
0,0,0,0.208442,0.487431,-0.913758
0,0,0,-0.992294,0.263194,-0.849049
0,0,0,0.112268,0.783363,-0.916945
0,0,0,-0.162996,0.532407,0.251334
0,0,0,0.816116,0.880281,-0.405076
0,0,0,0.579423,-0.110554,-1.079253
0,0,0,-0.408346,0.158474,-0.407591
0,0,0,0.562212,0.478691,-1.085889
0,0,0,-0.461481,0.387913,-0.414361
0,0,0,-0.813215,0.859394,0.660839
0,0,0,0.332233,0.766382,0.222232
0,0,0,0.396781,-0.397496,-0.132815
0,0,0,0.053608,0.705529,-0.527644
0,0,0,-0.170111,-0.401821,-0.068843
0,0,0,-0.101339,0.812258,0.034686
0,0,0,0.893537,0.590608,-0.652649
0,0,0,-0.221426,0.500717,-0.147066
0,0,0,0.839381,1.054132,0.084870
0,0,0,-0.101355,0.422076,0.557416
0,0,0,0.770812,1.275054,0.531411
0,0,0,-0.119666,0.438914,0.545033
0,0,0,0.612613,1.379578,0.794713
0,0,0,0.408556,0.236611,0.423703
0,0,0,0.336244,1.188496,-0.335767
0,0,0,-0.559731,0.388947,-0.097343
0,0,0,0.448000,0.641985,-0.752380
0,0,0,-0.658669,0.185453,-0.498464
0,0,0,0.374430,0.785491,-0.761935
0,0,0,-0.730334,0.677373,-0.231361
0,0,0,0.401824,1.034060,-0.544527
0,0,0,-0.547139,0.268386,-0.583379
0,0,0,0.474118,0.801469,-1.003049
0,0,0,0.958318,0.264058,-1.991376
0,0,0,-0.123013,0.506276,-1.463799
0,0,0,0.195620,0.427767,-0.287774
0,0,0,0.020389,1.608699,-0.040365
0,0,0,0.034394,0.396975,0.084301
0,0,0,0.954538,0.384810,-0.730487
0,0,0,-0.129632,0.755975,-1.144258
0,0,0,-0.769103,-0.072249,-0.512672
0,0,0,0.198853,0.235670,-1.193698
0,0,0,0.963068,0.730744,-2.017787
0,0,0,-0.070149,0.083117,-1.944854
0,0,0,-0.829998,0.829260,-1.341950
0,0,0,-0.151367,1.005166,-0.349134
0,0,0,-0.607549,0.159987,0.410031
0,0,0,0.436632,0.794746,0.402753
0,0,0,1.314933,0.511488,-0.409002
0,0,0,0.107221,0.321164,-0.406088
0,0,0,-0.231245,1.448555,-0.718020
0,0,0,0.448926,0.480868,-1.029422
0,0,0,-0.542065,0.821803,-0.385870
0,0,0,0.391598,0.419264,-1.077450
0,0,0,0.542115,1.517779,-1.587424
0,0,0,-0.155227,0.584412,-1.212838
0,0,0,0.971010,0.711133,-1.683746
0,0,0,1.024270,0.321295,-2.840160
0,0,0,-0.004485,0.544194,-2.211251
0,0,0,-0.822470,0.568022,-1.295626
0,0,0,0.232673,0.471338,-0.694124
0,0,0,0.790655,1.361168,-1.327001
0,0,0,-0.223909,0.859835,-0.844499
0,0,0,-0.853691,0.409769,0.109888
0,0,0,-0.087350,0.794216,0.972612
0,0,0,-0.278347,-0.216851,1.629154
0,0,0,0.502152,0.563414,1.102305
0,0,0,-0.465570,0.145251,0.487166
0,0,0,0.457662,0.735397,-0.059677
0,0,0,-0.721550,0.503080,-0.277790
0,0,0,0.480870,0.467149,-0.059457
0,0,0,-0.525659,0.671788,0.613205
0,0,0,0.524050,0.146509,0.264905
0,0,0,-0.115864,1.151193,0.006705
0,0,0,-0.666404,0.342289,0.744832
0,0,0,0.538063,0.546520,0.692336
0,0,0,-0.560494,0.714553,1.214979
0,0,0,0.465390,0.530504,0.562114
0,0,0,0.498877,-0.453689,-0.160940
0,0,0,-0.358277,0.289074,0.290471
0,0,0,-0.330059,1.283976,0.995759
0,0,0,-0.782296,0.351405,1.647657
0,0,0,0.247105,0.391390,0.982460
0,0,0,0.074516,1.453028,0.410526
0,0,0,0.076616,0.273843,0.103656
0,0,0,0.749964,0.626208,-0.861083
0,0,0,-0.458204,0.444552,-0.917498
0,0,0,-0.278908,0.532578,0.288714
0,0,0,0.774544,0.669515,-0.326842
0,0,0,-0.355033,0.896672,-0.719759
0,0,0,-0.170733,-0.216409,-0.257900
0,0,0,0.494953,0.800496,-0.383718
0,0,0,-0.530423,0.337880,0.106202
0,0,0,0.536436,0.786907,-0.295553
0,0,0,0.061345,0.103108,-1.187676
0,0,0,-0.458667,1.129931,-0.774466
0,0,0,0.367519,0.256946,-0.995222
0,0,0,-0.579408,0.947903,-0.643600
0,0,0,0.392288,0.250185,-0.400997
0,0,0,-0.453376,0.618089,0.407649
0,0,0,0.643200,0.798532,-0.115740
0,0,0,-0.330907,0.165884,0.274039
0,0,0,0.474440,1.075670,0.148112
0,0,0,0.815884,0.264725,-0.702497
0,0,0,-0.216054,0.916619,-0.736606
0,0,0,0.362082,0.155367,0.022082
0,0,0,-0.630306,0.792336,0.348323
0,0,0,0.453844,0.417529,-0.084624
0,0,0,-0.524481,0.592859,-0.788847
0,0,0,0.588394,0.901527,-0.404327
0,0,0,0.454722,0.863649,-1.616574
0,0,0,-0.473639,0.601411,-0.851115
0,0,0,-0.885442,0.730473,0.297405
0,0,0,0.263999,0.756512,-0.134710
0,0,0,-0.503727,-0.188281,-0.214659
0,0,0,-0.030022,0.865265,0.177926
0,0,0,0.663109,-0.103844,-0.094569
0,0,0,-0.411668,0.460703,0.044964
0,0,0,0.257795,-0.032949,0.939657
0,0,0,0.782892,0.723331,0.132291
0,0,0,-0.156141,0.866903,-0.623998
0,0,0,0.583785,-0.005203,-1.059780
0,0,0,-0.451258,0.438134,-0.583144
0,0,0,0.410374,0.921288,0.128523
0,0,0,1.005308,0.492047,-0.857312
0,0,0,-0.105906,0.805397,-0.438642
0,0,0,0.614892,0.383074,-1.338709
0,0,0,-0.443386,0.734250,-0.827208
0,0,0,0.582668,0.779423,-1.505194
0,0,0,-0.506316,0.363136,-1.129065
0,0,0,-0.691422,0.502908,0.073138
0,0,0,0.372565,0.687445,-0.510726
0,0,0,-0.700683,0.104295,-0.455056
0,0,0,0.398895,0.436243,-0.877549
0,0,0,-0.719397,0.019850,-1.135686
0,0,0,0.444712,0.357985,-1.298475
0,0,0,-0.495753,1.136778,-1.227667
0,0,0,-0.556079,0.003442,-0.778752
0,0,0,0.353730,0.600589,-1.338414
0,0,0,-0.582162,0.508912,-0.547050
0,0,0,0.599453,0.332738,-0.816328
0,0,0,0.095093,1.325844,-1.309267
0,0,0,-0.245789,0.200296,-0.984547
0,0,0,0.237172,1.052539,-0.260383
0,0,0,1.016232,0.453455,-0.999054
0,0,0,-0.105503,0.637501,-0.534759
0,0,0,0.903337,0.695201,-1.237850
0,0,0,-0.263308,0.335655,-1.293270
0,0,0,-0.627210,1.282259,-0.606586
0,0,0,0.034637,0.281315,-0.393830
0,0,0,0.777912,0.580160,-1.324209
0,0,0,-0.329247,0.552823,-0.791089
0,0,0,0.629064,0.144160,-1.435912
0,0,0,-0.370023,0.845616,-1.381161
0,0,0,-0.553112,-0.236908,-0.846272
0,0,0,0.417930,0.493068,-0.988063
0,0,0,-0.729424,0.295267,-0.603871
0,0,0,-0.603062,0.398998,0.608161
0,0,0,0.411298,0.785862,0.033683
0,0,0,-0.451706,-0.012164,0.368934
0,0,0,-0.001945,1.056126,-0.019087
0,0,0,0.366833,-0.072404,-0.291391
0,0,0,-0.334657,0.796747,0.205711
0,0,0,0.549146,0.206274,-0.404032
0,0,0,-0.257961,1.105150,-0.215338
0,0,0,0.402243,0.188059,-0.683777
0,0,0,1.059235,0.705766,-1.580149
0,0,0,0.005778,0.692457,-0.946580
0,0,0,0.643698,0.544694,0.078357
0,0,0,0.301520,0.669007,-1.086959
0,0,0,-0.821799,0.928612,-0.661299
0,0,0,-0.018605,0.092825,-0.284099
0,0,0,0.783798,0.709281,-0.974994
0,0,0,-0.261644,0.114198,-1.178942
0,0,0,0.522304,1.012367,-0.920168
0,0,0,-0.354222,0.232979,-0.568069
0,0,0,-0.695796,0.693212,0.513620
0,0,0,0.427732,0.784672,0.025689
0,0,0,-0.665592,0.831971,-0.508385
0,0,0,0.466534,0.695405,-0.967107
0,0,0,-0.572552,0.229030,-0.513050
0,0,0,0.579900,0.543644,-0.788395
0,0,0,-0.614921,0.309443,-0.663315
0,0,0,0.388551,0.649206,-1.281148
0,0,0,-0.754440,0.652629,-0.830435
0,0,0,0.405878,0.329161,-1.048775
0,0,0,-0.659647,0.896024,-1.228906
0,0,0,0.548661,0.718458,-1.184354
0,0,0,-0.372090,0.420098,-0.428441
0,0,0,0.769246,0.681136,-0.790612
0,0,0,-0.239381,0.524455,-0.104249
0,0,0,0.929738,0.631764,-0.463405
0,0,0,-0.066194,0.271296,0.157493
0,0,0,0.498340,1.307097,-0.165712
0,0,0,0.662522,0.525209,-1.093892
0,0,0,-0.315152,0.694610,-0.369584
0,0,0,0.061770,0.748700,0.788022
0,0,0,0.796010,-0.194830,1.033898
0,0,0,-0.190341,0.451688,1.356728
0,0,0,0.829799,0.262204,0.701519
0,0,0,1.117803,0.530232,-0.459215
0,0,0,-0.088297,0.630246,-0.618328
0,0,0,1.069671,0.542901,-1.011802
0,0,0,-0.036633,0.586079,-0.480067
0,0,0,0.240953,-0.601755,-0.496052
0,0,0,-0.244002,0.393236,0.015536
0,0,0,0.642858,1.013143,0.575653
0,0,0,0.624457,0.556508,-0.557374
0,0,0,-0.564652,0.831903,-0.464657
0,0,0,0.623215,1.116288,-0.567268
0,0,0,-0.309221,0.334210,-0.453485
0,0,0,0.851211,0.707116,-0.574667
0,0,0,-0.308417,0.704790,-0.950310
0,0,0,0.695329,0.145042,-1.372071
0,0,0,-0.410479,0.351082,-0.886759
0,0,0,0.773598,0.655483,-0.870989
0,0,0,-0.245096,0.679575,-0.183593
0,0,0,0.863922,0.294099,-0.535217
0,0,0,-0.188471,0.276028,0.093673
0,0,0,0.739212,0.787197,-0.524134
0,0,0,-0.112870,-0.064615,-0.716640
0,0,0,0.431932,0.915738,-1.202145
0,0,0,-0.578391,1.321989,-1.735196
0,0,0,0.312328,0.556916,-2.083595
0,0,0,0.406070,0.370427,-3.285410
0,0,0,-0.184527,1.427180,-3.129654
0,0,0,-0.721381,0.912714,-2.148421
0,0,0,0.273254,0.343396,-2.584109
0,0,0,-0.761201,0.789668,-2.100357
0,0,0,0.395303,1.012873,-1.787858
0,0,0,-0.344382,0.048619,-1.885599
0,0,0,-0.505976,0.882329,-1.006294
0,0,0,0.518767,0.467709,-1.539327
0,0,0,-0.428842,0.620045,-2.286443
0,0,0,0.773683,0.463275,-2.132473
0,0,0,-0.253616,1.028632,-2.463073
0,0,0,0.355782,0.404782,-1.613233
0,0,0,-0.754083,0.663983,-1.161634
0,0,0,0.337277,0.685354,-1.728985
0,0,0,-0.539611,0.719779,-0.866663
0,0,0,-0.089330,-0.196366,-0.197242
0,0,0,-0.595690,0.885314,0.056023
0,0,0,0.307144,0.712895,-0.764012
0,0,0,-0.837097,0.545669,-0.352645
0,0,0,0.374141,0.711015,-0.366001
0,0,0,-0.572257,-0.030246,-0.145204
0,0,0,0.565779,0.133987,-0.560320
0,0,0,-0.324344,0.672852,0.089842
0,0,0,0.507964,0.823350,-0.804240
0,0,0,0.557666,0.509980,-1.984613
0,0,0,-0.490384,0.111828,-1.488562
0,0,0,-0.008995,1.165078,-1.112019
0,0,0,-0.802765,0.711453,-0.287035
0,0,0,0.317163,0.382056,-0.660700
0,0,0,-0.480417,0.947580,-1.383363
0,0,0,0.534639,0.697864,-2.034950
0,0,0,-0.643343,0.748945,-1.697650
0,0,0,0.448464,0.482011,-1.228542
0,0,0,-0.106560,-0.266633,-2.017984
0,0,0,-0.488101,0.679579,-1.347001
0,0,0,0.603707,0.649777,-1.911056
0,0,0,-0.089471,0.615116,-2.907436
0,0,0,0.906421,0.442129,-3.601580
0,0,0,-0.121223,0.571568,-2.942170
0,0,0,0.114184,1.700632,-2.561332
0,0,0,0.063214,0.515206,-2.837583
0,0,0,-0.488041,0.600808,-1.742547
0,0,0,0.533834,0.545395,-2.423645
0,0,0,-0.419491,0.635300,-1.652193
0,0,0,-0.927636,0.593042,-0.535993
0,0,0,0.250957,0.794432,-0.810858
0,0,0,-0.723260,1.004227,-0.085848
0,0,0,0.372534,0.625517,-0.488325
0,0,0,-0.047189,-0.013030,0.467428
0,0,0,0.135814,1.026510,-0.144960
0,0,0,1.059449,0.650642,0.547236
0,0,0,-0.079016,0.274891,0.793931
0,0,0,1.058541,0.482925,0.385960
0,0,0,-0.132583,0.681968,0.598660
0,0,0,0.933765,0.567035,-0.002785
0,0,0,-0.159243,0.711770,0.541903
0,0,0,0.702947,0.172031,-0.140108
0,0,0,-0.359071,0.402210,0.427526
0,0,0,0.746608,0.352293,-0.102511
0,0,0,-0.351852,0.741666,0.281205
0,0,0,0.002395,-0.381556,0.597836
0,0,0,0.798347,0.499190,0.311354
0,0,0,1.677499,0.104911,-0.446251
0,0,0,0.609196,0.597370,-0.108331
0,0,0,0.204493,-0.500759,0.235178
0,0,0,0.556971,0.653334,0.054702
0,0,0,-0.447657,-0.043007,0.055741
0,0,0,0.335986,0.808450,-0.342688
0,0,0,1.332301,1.140397,-0.984011
0,0,0,1.096054,0.013688,-0.577053
0,0,0,1.989545,0.788838,-0.890911
0,0,0,1.387769,0.621722,0.163290
0,0,0,0.166237,0.656918,0.225951
0,0,0,1.297721,0.528422,0.654264
0,0,0,2.330807,1.173865,0.527977
0,0,0,1.260161,0.966864,1.098324
0,0,0,1.288001,-0.215899,1.372997
0,0,0,1.461641,0.985665,1.271996
0,0,0,0.777288,1.834225,1.846572
0,0,0,0.284478,0.760387,2.188491
0,0,0,0.379915,1.961578,2.073814
0,0,0,-0.639356,2.572012,2.393321
0,0,0,0.270375,1.882121,1.918606
0,0,0,-0.106239,3.041183,2.003003
0,0,0,-0.137787,1.829901,1.998391
0,0,0,-0.638781,1.958787,3.125834
0,0,0,0.386907,2.602658,2.996763
0,0,0,-0.295151,1.587672,3.062025
0,1,0,0.839297,1.796269,2.637312
0,1,0,0.009910,1.516110,3.528406
0,1,0,-0.893489,2.036436,4.193947
0,1,0,0.048683,1.333087,3.848158
0,1,0,0.642232,0.548482,3.130984
0,1,0,1.408716,1.235749,2.468348
0,2,0,0.280370,1.311281,2.973490
0,2,0,-0.717864,1.214777,3.703919
0,2,0,0.471658,1.119780,3.935819
0,2,0,-0.219101,2.070853,3.638846
0,3,0,0.696061,1.261327,3.696314
0,3,0,-0.495433,1.015851,3.878209
0,3,0,-0.040227,2.138472,3.761374
0,3,0,0.993729,2.147490,3.073673
0,3,0,0.167326,1.326596,3.462044
0,3,0,-0.889218,1.401615,4.101590
0,3,0,0.079779,0.707547,3.840172
0,3,0,-0.778943,-0.132004,3.627744
0,30,0,-1.425766,0.876519,3.886103
0,30,0,-0.508689,1.064522,3.094474
0,74,0,-1.681836,0.756000,2.962409
0,74,0,-1.182631,1.850087,2.768435
0,75,0,-1.748475,0.816411,3.111607
0,75,0,-2.210860,-0.316940,3.055770
0,75,0,-1.424778,0.327268,2.395211
0,75,0,-0.947302,1.167622,1.662849
0,76,0,-0.368571,1.147884,0.586726
0,76,0,-1.564719,1.312897,0.840343
0,76,0,-0.433433,0.875127,0.736703
0,76,0,-1.628465,0.890818,1.044168
0,77,0,-2.367337,1.718254,0.549697
0,77,0,-3.435209,1.530792,1.158023
0,77,0,-2.225290,1.630607,1.007346
0,77,0,-2.623155,1.425264,-0.105581
0,78,0,-3.714963,0.968416,-0.351923
0,78,0,-2.499033,1.121626,-0.408989
0,79,0,-1.428502,1.179429,-1.009546
0,79,0,-2.507306,1.690841,-1.247082
0,79,0,-3.203335,2.672740,-1.413845
0,79,0,-2.146050,2.124483,-1.708690
0,79,0,-3.123765,1.392030,-1.709617
0,80,0,-2.356449,1.249839,-2.656924
0,80,0,-1.797235,0.809453,-3.645070
0,80,0,-3.003214,0.935592,-3.415717
0,81,0,-3.431855,2.073615,-3.505280
0,81,0,-2.244104,2.133841,-3.843258
0,81,0,-3.449690,2.276229,-3.666048
0,82,0,-2.440304,1.903645,-4.272470
0,82,0,-1.976696,2.490542,-5.248091
0,82,0,-3.074658,2.998785,-5.040727
0,82,0,-2.284260,2.277424,-5.660994
0,83,0,-3.488727,2.453598,-5.648154
0,83,0,-2.691416,2.100063,-6.527747
0,83,0,-3.268683,1.616146,-7.448048
0,83,0,-2.278531,1.845020,-8.151459
0,83,0,-3.023378,2.798043,-8.245991
0,83,0,-3.019041,2.333201,-9.349133
0,84,0,-2.525371,1.879991,-10.370728
0,84,0,-3.570760,2.451033,-10.061786
0,84,0,-2.685641,1.731975,-10.526311
0,84,0,-1.601439,1.510315,-11.069596
0,84,0,-2.769900,1.831779,-10.907250
0,84,0,-1.788601,1.577988,-11.607837
0,85,0,-2.901204,1.310419,-11.146743
0,85,0,-1.681131,1.206327,-11.093704
0,85,0,-2.839229,1.124672,-10.697648
0,85,0,-1.659666,1.159446,-11.060831
0,85,0,-2.507990,1.857135,-11.489715
0,85,0,-1.531225,1.451131,-12.123894
0,85,0,-1.430582,2.487240,-12.546710
0,86,0,-0.758358,3.390242,-12.993591
0,86,0,-1.494790,2.419886,-12.878175
0,86,0,-2.352321,1.646209,-13.213777
0,86,0,-3.168551,1.436744,-12.306966
0,87,0,-2.141736,1.326196,-12.966982
0,87,0,-1.506324,2.084278,-13.663297
0,87,0,-2.410810,1.501655,-14.022082
0,87,0,-2.105229,0.325632,-14.117324
0,87,0,-3.202012,-0.072369,-14.448963
0,87,0,-4.399601,-0.228861,-14.531351
0,87,0,-3.638958,0.346121,-15.231645
0,88,0,-4.307333,1.351298,-15.153413
0,88,0,-3.433794,2.135071,-14.907286
0,88,0,-3.888400,3.224347,-14.606493
0,88,0,-5.059411,2.922555,-14.668203
0,88,0,-3.876802,2.568552,-14.817122
0,88,0,-2.730862,2.081426,-14.844029
0,88,0,-1.789285,1.288328,-14.717531
0,89,0,-0.593911,1.229035,-15.063303
0,89,0,-1.181850,2.142928,-14.501303
0,89,0,-1.617916,3.255633,-14.222583
0,89,0,-1.512568,2.117396,-14.610230
0,89,0,-2.722775,2.293656,-14.471448
0,89,0,-2.292415,2.296882,-15.530707
0,90,0,-3.139052,2.116882,-16.256147
0,90,0,-2.388773,1.217511,-16.613054
0,90,0,-3.173895,0.955611,-15.714867
0,90,0,-2.834119,1.914549,-15.051044
0,90,0,-2.899048,0.747219,-14.703730
0,90,0,-3.363669,1.803471,-14.277760
0,90,0,-2.427132,1.103324,-14.618977
0,90,0,-1.618909,1.372969,-15.380614
0,91,0,-1.771552,2.413199,-15.896806
0,91,0,-2.865314,2.032159,-15.457415
0,91,0,-2.480675,1.644291,-14.382209
0,91,0,-1.479808,1.761122,-15.065883
0,91,0,-1.196623,0.717001,-15.556444
0,91,0,-0.601998,1.699450,-15.796491
0,91,0,-1.796226,1.823067,-15.524748
0,91,0,-2.612343,2.542957,-14.941669
0,91,0,-1.543448,2.141012,-14.547386
0,91,0,-2.463905,1.372791,-14.342336
0,91,0,-2.582428,2.533506,-13.997339
0,91,0,-1.688246,2.366040,-14.817460
0,92,0,-2.350676,2.951931,-15.490527
0,92,0,-1.153510,2.698014,-15.576178
0,92,0,-2.327111,3.000958,-15.370038
0,92,0,-3.312236,3.000089,-14.591089
0,91,0,-2.267995,2.453179,-14.959603
0,91,0,-1.094529,2.514383,-15.089529
0,91,0,-2.259699,2.183141,-15.023765
0,91,0,-1.177269,1.836671,-15.483762
0,92,0,-1.910586,2.759620,-15.610013
0,92,0,-1.513165,1.632892,-15.794206
0,92,0,-2.092129,0.789541,-15.284101
0,92,0,-1.534801,1.861549,-15.271833
0,92,0,-0.741959,2.724848,-15.541547
0,92,0,-1.848834,2.264426,-15.251761
0,92,0,-1.129422,3.189809,-15.438855
0,92,0,-2.068479,2.598473,-14.870544
0,92,0,-1.777731,1.427936,-14.965155
0,92,0,-2.563150,2.330653,-14.690970
0,92,0,-3.052669,3.171672,-14.969888
0,92,0,-3.912862,2.388289,-14.546741
0,92,0,-2.815529,2.329364,-15.115956
0,92,0,-2.715585,1.153942,-15.340359
0,92,0,-1.922292,1.107060,-16.165579
0,92,0,-2.544231,2.112554,-15.849048
0,92,0,-3.189281,2.744854,-16.478676
0,92,0,-2.274278,2.025307,-16.858196
0,92,0,-1.092489,2.342864,-16.800886
0,92,0,0.083181,2.665111,-16.699608
0,92,0,-1.120692,2.534930,-16.473167
0,92,0,-2.027212,1.742767,-16.501928
0,93,0,-1.752145,0.795560,-17.103756
0,93,0,-2.416441,1.807055,-16.919811
0,93,0,-1.589337,1.303260,-17.633448
0,93,0,-2.722726,1.706987,-17.516315
0,93,0,-3.210777,2.603456,-16.827740
0,93,0,-2.389834,1.818546,-17.292067
0,93,0,-3.305259,2.497220,-16.814308
0,93,0,-2.138035,2.701886,-17.154921
0,93,0,-2.519373,3.802992,-16.879515
0,93,0,-1.845804,2.831893,-17.187204
0,93,0,-2.980840,3.226418,-17.073503
0,93,0,-2.848560,4.432827,-17.030987
0,93,0,-2.247113,3.464720,-17.499027
0,93,0,-2.231843,2.246886,-17.599354
0,93,0,-2.766763,3.320328,-17.585104
0,93,0,-1.943878,2.618470,-18.158903
0,93,0,-2.748368,3.511053,-18.062279
0,93,0,-2.991489,4.694180,-17.899330
0,93,0,-2.356825,3.667365,-18.132374
0,93,0,-3.338612,3.144401,-17.573538
0,93,0,-2.120260,3.148439,-17.569778
0,93,0,-3.158315,3.560789,-17.025316
0,93,0,-3.965967,3.169984,-16.175531
0,93,0,-2.896149,2.729580,-16.624249
0,93,0,-1.866285,2.844151,-17.266214
0,93,0,-1.928724,4.052146,-17.348007
0,93,0,-2.937738,3.553136,-16.811111
0,93,0,-1.737835,3.305737,-16.899632
0,93,0,-2.711521,2.637403,-17.085356
0,93,0,-2.950382,2.018201,-16.056061
0,93,0,-1.972498,2.254100,-16.754313
0,93,0,-3.168044,2.444172,-16.614267
0,92,0,-4.163971,2.419943,-15.863867
0,92,0,-3.761673,1.271793,-15.867852
0,93,0,-2.630836,1.720016,-15.793574
0,93,0,-2.883043,2.902814,-15.815439
0,92,0,-3.915522,3.314430,-15.443754
0,92,0,-2.704072,3.159848,-15.595487
0,93,0,-3.558701,2.574684,-15.165141
0,93,0,-2.365722,2.497119,-15.480664
0,93,0,-1.583155,2.973437,-16.227274
0,93,0,-2.737671,2.734343,-15.847621
0,93,0,-2.453601,3.843253,-15.667426
0,93,0,-3.020340,2.823447,-15.276124
0,93,0,-1.873726,2.630602,-15.682878
0,93,0,-2.732609,2.898759,-16.325865
0,93,0,-3.765069,3.190210,-15.708113
0,93,0,-2.544249,3.163722,-15.892520
0,93,0,-1.809497,3.519160,-16.657236
0,93,0,-2.523900,2.552942,-16.431812
0,93,0,-1.508935,2.842137,-16.947886
0,93,0,-2.551520,3.401049,-16.587357
0,93,0,-1.445337,2.906541,-16.772154
0,93,0,-2.484266,3.488062,-16.449963
0,93,0,-1.884178,2.708595,-17.059799
0,93,0,-0.667660,2.838537,-17.078321
0,93,0,-1.857699,3.074725,-16.952244
0,93,0,-2.107760,4.264229,-16.895189
0,93,0,-2.983255,3.470194,-16.537426
0,93,0,-1.830884,3.320002,-16.971703
0,93,0,-0.821507,2.974517,-17.422905
0,93,0,-1.943139,3.425989,-17.295448
0,93,0,-1.237980,2.449529,-17.440825
0,93,0,-2.209622,3.117198,-17.083124
0,93,0,-3.422296,3.266198,-17.008615
0,93,0,-2.235413,3.343101,-16.794033
0,93,0,-1.059791,3.182798,-16.998384
0,93,0,-2.258387,3.167425,-16.736334
0,93,0,-2.438598,4.176841,-16.071707
0,93,0,-1.618030,3.332816,-16.446550
0,92,0,-2.567602,3.958889,-15.948153
0,92,0,-1.802695,3.024753,-16.176756
0,93,0,-2.807307,3.531432,-15.646897
0,93,0,-1.668046,3.082826,-15.672741
0,92,0,-2.861198,3.239911,-15.407571
0,92,0,-1.700825,3.119818,-15.836251
0,92,0,-2.659531,3.634064,-15.243256
0,92,0,-1.754291,2.819949,-15.414865
0,92,0,-2.638907,2.401844,-14.807625
0,92,0,-1.452623,2.643933,-15.025517
0,92,0,-1.477763,1.427558,-15.092604
0,92,0,-2.083835,2.428046,-14.727399
0,92,0,-0.925745,2.750708,-14.968032
0,92,0,-1.298443,2.275055,-15.905511
0,92,0,-2.367815,2.522273,-15.877085
0,92,0,-2.204383,2.973233,-14.758094
0,92,0,-1.053776,2.714774,-15.111469
0,92,0,-2.230263,2.974281,-14.976033
0,92,0,-1.598277,2.141157,-14.372958
0,92,0,-2.482709,2.806020,-13.816143
0,92,0,-1.355374,2.508462,-14.236609
0,92,0,-2.316912,2.161470,-13.528941
0,92,0,-1.382757,2.671423,-12.965194
0,92,0,-2.413844,2.417362,-12.331672
0,92,0,-1.266739,2.325201,-12.791940
0,92,0,-1.642671,1.618692,-13.652920
0,92,0,-2.422227,2.539730,-13.455338
0,92,0,-1.381332,3.121068,-13.709660
0,92,0,-0.626846,2.860418,-14.633717
0,92,0,-1.838363,3.016478,-14.446238
0,92,0,-2.462775,2.081603,-14.843253
0,92,0,-1.901478,3.150162,-14.937048
0,92,0,-2.938820,2.691662,-14.428568
0,92,0,-1.894635,2.168850,-14.840478
0,92,0,-1.463544,3.307187,-14.804646
0,92,0,-2.461981,3.112618,-14.069929
0,93,0,-1.422093,2.551600,-14.441793
0,93,0,-0.299880,2.595781,-14.967788
0,93,0,0.620351,2.459239,-15.764091
0,93,0,-0.456971,2.049200,-15.986496
0,93,0,-1.394469,2.740244,-15.627670
0,93,0,-0.395628,2.293012,-16.175098
0,92,0,-1.118427,2.938198,-16.712154
0,92,0,-1.782266,3.656545,-15.955900
0,92,0,-0.849798,2.929246,-16.328508
0,92,0,0.181555,3.445991,-16.490068
0,92,0,-0.779156,4.020828,-15.961844
0,92,0,0.253901,3.440930,-16.360189
0,92,0,-0.272884,4.356151,-15.767336
0,92,0,0.964467,4.291714,-15.941386
0,92,0,1.800964,3.393207,-16.013718
0,92,0,1.003484,3.858752,-15.267116
0,92,0,2.213796,3.590242,-15.298708
0,92,0,3.226776,2.975355,-15.519140
0,92,0,4.185155,3.573164,-15.405519
0,92,0,4.250003,2.426206,-15.081617
0,92,0,5.404007,2.145669,-15.310681
0,92,0,5.557988,1.654240,-15.085073
0,92,0,6.106671,2.558814,-15.561541
0,92,0,7.209202,2.174418,-15.918155
0,92,0,6.051060,2.152450,-15.985373
0,93,0,7.256536,2.402943,-16.161949
0,93,0,8.394560,2.181925,-16.430908
0,94,0,9.550148,1.770134,-16.550179
0,94,0,10.719571,1.499058,-16.719547
0,94,0,11.897630,1.566748,-16.926428
0,94,0,13.057770,1.581674,-17.131529
0,96,0,14.227617,1.558524,-17.229567
0,97,0,15.376286,1.426796,-17.337116
0,97,0,16.522291,1.377866,-17.353714
0,98,0,17.643410,1.273947,-17.392746
0,98,0,18.734413,1.188004,-17.367367
0,100,0,19.787598,1.153843,-17.464125
0,100,0,20.776480,0.870476,-17.409290
0,102,0,21.768278,0.801548,-17.363472
0,102,0,22.742088,0.778320,-17.326372
0,101,0,23.362980,1.107595,-17.123148
0,101,0,23.962976,1.310885,-16.805109
0,101,0,24.431959,1.253901,-16.503050
0,101,0,25.063541,1.212169,-16.253246
0,101,0,25.411392,1.540208,-15.956713
0,100,0,25.515112,1.769392,-15.593588
0,100,0,26.009575,1.210918,-15.573840
0,100,0,26.334703,0.982489,-15.247111
0,100,0,26.639647,0.950507,-15.030641
0,100,0,26.265070,0.944282,-14.679215
0,100,0,26.190483,0.991176,-14.282780
0,100,0,26.082293,1.236414,-13.930285
0,100,0,25.293457,1.664743,-13.387462
0,100,0,25.689369,1.817199,-13.126897
0,100,0,25.957260,1.145611,-13.010924
0,100,0,26.201872,0.806664,-12.901335
0,100,0,25.845049,1.530952,-12.764687
0,101,0,25.431547,1.534188,-12.246651
0,101,0,25.680672,0.679856,-12.117399
0,101,0,25.122564,1.118767,-11.821784
0,101,0,25.280451,1.364908,-11.735806
0,102,0,24.929255,0.519900,-11.530642
0,102,0,24.583595,0.220169,-11.616786
0,102,0,23.564001,0.350377,-11.052761
0,102,0,23.999147,0.365504,-11.541363
0,102,0,22.965897,0.597438,-11.458365
0,101,0,22.372824,0.541736,-11.342791
0,101,0,22.552507,-0.066776,-11.670009
0,100,0,21.903755,-0.090232,-11.721512
0,100,0,22.044155,0.492393,-11.786780
0,100,0,21.080156,0.779098,-11.571516
0,100,0,20.093731,0.182492,-11.273332
0,98,0,18.976784,0.449826,-11.271691
0,98,0,18.088148,1.250702,-10.971601
0,97,0,17.571022,0.609498,-11.465329
0,97,0,16.324970,0.594757,-11.237971
0,96,0,15.124415,0.817393,-11.215162
0,96,0,14.005043,0.308935,-11.014642
0,95,0,12.796164,0.340080,-10.674158
0,95,0,11.599455,0.564078,-10.393119
0,94,0,11.059691,0.616191,-11.490547
0,94,0,9.922654,0.327324,-11.097771
0,94,0,10.102000,1.336414,-11.392958
0,94,0,9.245087,0.551007,-11.374961
0,94,0,9.943900,-0.017444,-11.745786
0,94,0,8.905025,0.568716,-11.416119
0,94,0,8.165598,1.417963,-10.983116
0,94,0,9.101814,1.109252,-11.146214
0,94,0,7.909870,1.308156,-10.921395
0,94,0,7.573978,0.673283,-10.168400
0,94,0,8.217370,1.424561,-9.744617
0,94,0,7.286864,0.774616,-9.800100
0,94,0,8.352883,1.140862,-10.005316
0,94,0,9.085454,1.306497,-10.534777
0,94,0,8.246752,1.223215,-11.022818
0,94,0,8.040932,1.148587,-11.012974
0,94,0,7.185373,0.682652,-10.316656
0,94,0,8.167941,1.144484,-10.394579
0,94,0,7.423302,1.754988,-9.985452
0,94,0,8.535225,1.608510,-10.275540
0,94,0,7.512281,1.185668,-9.766118
0,94,0,8.568877,1.195265,-10.273151
0,94,0,9.345037,1.323036,-10.847375
0,94,0,8.276826,1.718121,-10.372588
0,94,0,7.916225,0.762369,-9.997262
0,94,0,8.582232,1.543675,-10.283363
0,94,0,7.779273,1.271443,-9.446651
0,94,0,8.740377,1.377245,-9.019582
0,94,0,9.385930,0.891840,-9.835053
0,94,0,8.279756,1.248758,-9.439882
0,94,0,9.312943,1.503646,-9.800839
0,94,0,8.139714,1.703488,-9.525204
0,94,0,8.877813,0.896310,-9.791025
0,94,0,9.677727,1.040211,-10.563478
0,94,0,8.655468,1.621776,-10.283870
0,94,0,9.373014,0.865655,-10.130768
0,94,0,8.505121,1.209835,-9.353526
0,94,0,9.467697,1.063892,-9.836569
0,94,0,8.352163,0.868940,-9.518470
0,94,0,9.341072,1.227368,-9.371720
0,94,0,9.624278,1.251374,-10.041226
0,94,0,9.616181,1.245054,-10.927758
0,94,0,8.673938,0.628850,-10.931344
0,94,0,8.003808,1.531308,-10.555600
0,94,0,9.053309,1.209132,-10.934762
0,94,0,9.362959,0.330793,-10.880811
0,94,0,10.117136,0.901369,-11.129986
0,94,0,8.983976,1.087614,-10.691997
0,94,0,9.790435,0.981809,-11.343957
0,94,0,9.994047,0.732499,-12.132708
0,94,0,8.855312,0.946018,-11.723175
0,94,0,8.171501,1.886542,-11.751390
0,94,0,8.632787,0.857147,-11.848817
0,94,0,7.855155,1.690561,-11.880407
0,94,0,7.860156,2.724359,-11.358110
0,94,0,7.411212,1.654765,-10.972013
0,93,0,6.201548,1.599530,-10.627892
0,93,0,7.057130,2.262395,-11.018558
0,93,0,6.660233,1.177138,-11.352513
0,93,0,5.500257,1.570090,-11.034644
0,93,0,4.387629,2.078904,-11.248592
0,93,0,3.190519,2.153540,-10.847401
0,93,0,1.961863,2.338515,-10.712075
0,93,0,0.805660,2.675812,-10.902223
0,93,0,0.826044,1.679026,-11.587068
0,93,0,-0.195798,2.319846,-11.533677
0,92,0,0.579598,1.586666,-12.122828
0,92,0,1.588574,2.086020,-12.541859
0,92,0,0.500184,2.104639,-12.018452
0,92,0,1.586797,2.177760,-12.467240
0,92,0,0.482255,2.058677,-11.917458
0,92,0,1.502657,1.459031,-12.115915
0,92,0,0.508442,2.110019,-11.829752
0,92,0,1.523852,2.081280,-12.489950
0,92,0,0.457746,2.481635,-12.004275
0,92,0,0.124153,1.519835,-11.345027
0,92,0,1.184161,2.065465,-11.588617
0,92,0,0.295904,1.533581,-11.918576
0,92,0,1.458138,1.606279,-12.284513
0,92,0,0.553363,2.330925,-11.883555
0,92,0,1.045189,1.857434,-10.893722
0,92,0,2.022804,1.456611,-11.493011
0,92,0,0.968565,2.029032,-11.250080
0,92,0,1.867460,2.049202,-11.895416
0,92,0,0.795781,1.873399,-11.295707
0,92,0,1.806205,1.538296,-11.892974
0,92,0,0.680268,1.769068,-11.444355
0,92,0,1.203052,0.687851,-11.530703
0,92,0,0.565512,1.637986,-11.101256
0,92,0,1.582820,1.013105,-11.326460
0,92,0,0.448813,0.989458,-10.852612
0,92,0,1.491745,1.481866,-11.199079
0,92,0,0.457964,1.954916,-10.724285
0,92,0,1.032986,0.955491,-10.367126
0,92,0,1.969992,1.436978,-10.958701
0,92,0,0.794900,1.560996,-10.623601
0,92,0,-0.415835,1.496127,-10.435307
0,92,0,0.802518,1.461463,-10.556690
0,92,0,0.544758,2.300281,-9.782075
0,92,0,1.610934,1.764213,-10.081350
0,92,0,2.608860,1.178708,-10.408054
0,92,0,1.417204,1.119943,-10.123576
0,92,0,2.286227,1.837755,-10.498850
0,92,0,2.699261,1.258294,-11.442822
0,92,0,1.551395,1.303351,-11.000855
0,92,0,2.529742,1.203900,-11.687539
0,92,0,1.965909,1.622726,-12.529557
0,92,0,1.272900,0.701726,-12.131240
0,92,0,2.052516,1.606024,-11.952079
0,92,0,1.099773,1.089239,-11.372809
0,92,0,2.301297,1.046216,-11.508250
0,92,0,1.646108,1.973783,-11.163073
0,92,0,1.696796,0.861982,-10.675227
0,92,0,1.647678,2.053378,-10.662124
0,92,0,2.024780,0.956960,-11.004059
0,92,0,0.981509,1.562484,-10.868123
0,92,0,2.002070,0.952163,-11.135436
0,92,0,2.957475,0.918854,-11.866021
0,92,0,1.863779,0.973881,-11.306791
0,92,0,2.897079,1.034187,-11.857011
0,92,0,1.810422,1.098119,-11.282455
0,92,0,2.914855,0.840278,-11.694906
0,92,0,1.894881,1.079396,-11.046290
0,92,0,2.825115,0.725488,-11.676992
0,92,0,1.694309,1.059454,-11.335308
0,92,0,1.666093,0.375345,-10.379655
0,92,0,1.958476,1.527493,-10.472958
0,92,0,2.501521,0.483906,-10.767828
0,92,0,1.405827,0.725815,-10.270100
0,92,0,2.547708,0.987146,-10.445617
0,92,0,2.825960,0.755806,-11.473959
0,92,0,1.740733,0.839737,-10.899799
0,92,0,2.603580,1.397526,-11.428320
0,92,0,1.596543,0.937999,-10.888528
0,92,0,2.700994,0.556838,-11.132871
0,92,0,1.697281,0.930195,-10.532332
0,92,0,2.855209,0.930318,-10.449772
0,92,0,1.703548,1.057690,-10.051199
0,92,0,2.760695,1.456618,-10.327222
0,92,0,1.618000,1.618307,-9.857710
0,92,0,1.304299,2.654725,-10.285229
0,92,0,0.233262,2.310475,-9.710422
0,92,0,0.016923,1.117824,-9.812027
0,92,0,-1.073071,1.589872,-9.365144
0,92,0,-2.254775,1.932974,-9.017449
0,92,0,-3.380825,2.275580,-8.495000
0,93,0,-4.594831,1.907227,-8.262848
0,93,0,-5.837204,1.620899,-8.100730
0,93,0,-7.101634,1.645327,-7.908270
0,93,0,-8.342579,1.485630,-7.654490
0,94,0,-9.567176,1.221193,-7.433366
0,94,0,-10.748830,0.837705,-7.184543
0,96,0,-11.964808,0.625242,-6.925436
0,96,0,-13.178558,0.352574,-6.827298
0,97,0,-14.375957,0.098486,-6.613232
0,97,0,-15.585018,-0.086054,-6.513664
0,99,0,-16.779573,-0.279502,-6.414043
0,99,0,-17.976379,-0.343806,-6.283771
0,101,0,-19.150484,-0.365544,-6.113838
0,101,0,-20.303795,-0.480528,-5.928491
0,102,0,-21.433161,-0.682432,-5.798915
0,102,0,-22.479698,-1.025893,-5.531848
0,102,0,-23.280239,-1.296064,-6.098783
0,102,0,-24.235556,-1.484901,-5.652564
0,102,0,-24.419283,-2.492801,-5.948524
0,102,0,-23.288063,-2.351936,-6.208918
0,102,0,-24.365179,-2.088875,-6.094685
0,102,0,-24.538216,-1.332241,-6.641674
0,103,0,-23.756115,-1.304819,-7.519904
0,103,0,-24.490425,-0.501060,-7.279995
0,102,0,-25.375683,-0.398724,-7.107313
0,102,0,-24.283634,-0.454625,-7.609278
0,102,0,-23.173046,0.102887,-7.601772
0,101,0,-22.006035,-0.253767,-7.796501
0,101,0,-20.822783,-0.322043,-8.149524
0,100,0,-21.062458,0.702009,-7.884549
0,100,0,-19.938324,0.340944,-8.235631
0,98,0,-18.813896,0.766593,-8.567370
0,98,0,-17.901148,1.546657,-8.937652
0,97,0,-16.696999,1.269138,-8.889682
0,97,0,-15.538096,0.995205,-9.305640
0,96,0,-14.429358,1.616266,-9.315717
0,96,0,-13.437724,2.419861,-9.515951
0,95,0,-12.146345,2.578464,-9.764174
0,95,0,-10.899146,2.219012,-10.031317
0,94,0,-9.606662,2.075292,-10.277354
0,94,0,-8.326789,2.099836,-10.559658
0,93,0,-7.067736,2.030048,-10.813355
0,93,0,-5.815957,1.978138,-10.999879
0,94,0,-4.574712,2.012539,-11.173604
0,94,0,-3.351956,2.184252,-11.360322
0,94,0,-2.145362,2.438818,-11.528914
0,94,0,-0.953073,2.727986,-11.756091
0,94,0,0.242155,3.040475,-11.923590
0,94,0,1.382719,3.495473,-12.116605
0,94,0,2.441149,4.121724,-12.234077
0,94,0,3.524523,4.695683,-12.297206
0,94,0,4.706007,4.369380,-12.301804
0,94,0,5.590454,5.160739,-12.122927
0,94,0,6.697939,5.633569,-12.262629
0,94,0,7.282494,6.273331,-11.522113
0,94,0,8.374005,5.795151,-11.605222
0,94,0,7.486013,5.558829,-10.712969
0,94,0,7.626126,5.774077,-9.567047
0,94,0,7.908821,5.794971,-8.487380
0,94,0,7.101113,5.685393,-7.506836
0,95,0,8.255990,5.956798,-7.791788
0,95,0,8.380263,6.980796,-7.261062
0,95,0,9.241443,6.142520,-7.347369
0,95,0,8.599840,5.363602,-6.664715
0,95,0,9.504531,6.061522,-6.507514
0,95,0,10.348523,5.308907,-6.354610
0,95,0,11.177401,5.825464,-6.535274
0,95,0,10.176096,6.371540,-6.088886
0,95,0,11.276172,6.407157,-6.082106
0,95,0,12.123079,5.810017,-6.276408
0,95,0,11.126246,6.323329,-5.713426
0,95,0,11.567296,7.192935,-5.429367
0,96,0,11.956720,6.092209,-5.543022
0,96,0,13.117189,6.083066,-5.551286
0,96,0,11.997106,6.377442,-5.050416
0,96,0,12.315988,7.054195,-4.651519
0,96,0,12.337148,5.842124,-4.587595
0,96,0,12.764000,6.827081,-4.386629
0,96,0,11.914931,6.377321,-3.611273
0,96,0,11.747901,5.223000,-3.364104
0,97,0,12.299434,6.302961,-3.358346
0,97,0,13.350650,6.746826,-3.500735
0,97,0,13.194697,7.965647,-3.299606
0,97,0,12.797505,9.159187,-3.093359
0,98,0,11.978487,10.146112,-2.843000
0,98,0,11.008221,11.009591,-2.489864
0,99,0,10.261998,12.072301,-2.291397
0,99,0,9.283268,12.955652,-2.027215
0,99,0,8.138621,13.656412,-1.672261
0,100,0,6.920702,14.244577,-1.300254
0,100,0,5.643068,14.702575,-0.922185
0,101,0,4.347545,15.082579,-0.506824
0,101,0,3.025905,15.370461,-0.059048
0,103,0,1.769700,15.867597,0.339343
0,103,0,0.445499,16.168165,0.782076
0,105,0,-0.904006,16.318615,1.292864
0,105,0,-2.256856,16.440794,1.801393
0,107,0,-3.626574,16.377645,2.335845
0,107,0,-4.979381,16.449697,2.869827
0,108,0,-6.334683,16.249504,3.416228
0,108,0,-7.667625,15.919893,3.954735
0,110,0,-8.969487,15.487150,4.487850
0,110,0,-10.241061,14.995269,4.975711
0,107,0,-11.487298,14.528215,5.471025
0,107,0,-12.649087,13.890931,5.909337
0,106,0,-13.688797,13.087797,6.312421
0,106,0,-14.715619,12.314161,6.714769
0,112,0,-15.601656,11.384368,6.999358
0,112,0,-16.277092,10.304535,7.167532
0,112,0,-16.707293,9.119643,7.249291
0,112,0,-17.052824,7.928897,7.315109
0,109,0,-17.305964,6.739462,7.317552
0,109,0,-17.407309,5.539639,7.282033
0,106,0,-17.278345,4.356330,7.123206
0,106,0,-17.016541,3.213427,6.913143
0,100,0,-16.570154,2.127851,6.677582
0,100,0,-15.907637,1.156930,6.377769
0,97,0,-15.117068,0.281189,6.031725
0,97,0,-14.218745,-0.498841,5.664517
0,97,0,-13.174971,-1.088259,5.257754
0,95,0,-12.045661,-1.576352,4.899258
0,95,0,-10.896152,-2.035064,4.557761
0,91,0,-9.730496,-2.434783,4.208456
0,91,0,-8.530671,-2.749499,3.895938
0,95,0,-7.346799,-3.141081,3.617564
0,95,0,-6.152651,-3.386840,3.265859
0,98,0,-4.968598,-3.627704,2.972350
0,98,0,-3.802878,-3.847573,2.665772
0,100,0,-2.614308,-3.933010,2.397715
0,100,0,-1.418586,-3.933339,2.180714
0,101,0,-0.216712,-3.731498,2.052086
0,101,0,0.960385,-3.455494,1.880865
0,101,0,2.048644,-2.829078,1.752485
0,101,0,3.067161,-2.074749,1.636917
0,104,0,4.012754,-1.228268,1.548639
0,104,0,4.811317,-0.234171,1.478995
0,107,0,5.453345,0.871675,1.433591
0,107,0,5.924820,2.058467,1.414419
0,111,0,6.188593,3.303203,1.414336
0,111,0,6.324330,4.554679,1.424785
0,114,0,6.283126,5.804832,1.467309
0,114,0,5.947214,7.014706,1.568362
0,116,0,5.242051,8.073445,1.769506
0,116,0,4.363169,9.015649,2.047311
0,115,0,3.245619,9.699639,2.412549
0,115,0,2.031593,10.182673,2.804297
0,114,0,0.762232,10.507401,3.233962
0,114,0,-0.533366,10.721583,3.673768
0,112,0,-1.847206,10.787914,4.113900
0,112,0,-3.154710,10.702080,4.571433
0,110,0,-4.434537,10.422202,5.016900
0,110,0,-5.688922,10.174090,5.452245
0,105,0,-6.892978,9.735605,5.849012
0,105,0,-8.010497,9.134764,6.231871
0,108,0,-9.102521,8.560005,6.589822
0,108,0,-10.056195,7.788345,6.803559
0,106,0,-10.859473,6.882231,7.003414
0,106,0,-11.495605,5.851917,7.107525
0,104,0,-11.855564,4.683748,7.083758
0,104,0,-11.998447,3.463275,7.020953
0,100,0,-12.012354,2.235836,6.828343
0,100,0,-11.818481,1.003394,6.593920
0,96,0,-11.274961,-0.135313,6.307629
0,96,0,-10.681263,-1.222338,6.004192
0,93,0,-10.120806,-2.304296,5.720573
0,93,0,-9.335903,-3.230704,5.402959
0,93,0,-8.368379,-3.961698,5.084618
0,81,0,-7.447087,-4.692005,4.754025
0,81,0,-6.401947,-5.268802,4.476438
0,93,0,-5.194222,-5.494725,4.202121
0,93,0,-3.930747,-5.516515,3.957068
0,101,0,-2.638379,-5.335440,3.779799
0,101,0,-1.356838,-5.038613,3.600055
0,105,0,-0.121807,-4.503109,3.414790
0,105,0,1.114452,-3.932231,3.306498
0,115,0,2.280604,-3.246752,3.188382
