Time,Lat,Lon,Roll,Pitch,Yaw,Hight,PWM1,PWM2,PWM3,PWM4,,,
0,20.99498,0,1.060399,0.667288,-0.253584,51,51,51,51,,,,
0,20.999575,0,0.286185,-0.226585,-0.518151,51,51,51,51,,,,#define HOVER_TIME 1500000
0,20.992094,0,1.490639,-0.499808,-0.844998,51,51,51,51,,,,#define HOVER_THROTTLE 50
0,20.976675,0,2.692341,-0.212058,-1.063332,51,51,51,51,,,,#define MIN_CTRL_THROTTLE 45
0,20.992424,0,1.493859,-0.370173,-1.247095,51,51,51,51,,,,#define MAX_CTRL_THROTTLE 53
0,21.997625,0,0.402612,-0.739189,-1.75792,51,51,51,51,,,,
0,21.993265,0,-0.701027,-1.232335,-2.167112,51,51,51,51,,,,#define Kp ? ? ? 0.1f
0,21.996391,0,0.20868,-1.01665,-2.96462,51,51,51,51,,,,#define KpH ? ? ?0.1f
0,20.990713,0,1.36697,-1.017567,-3.225764,51,51,51,51,,,,
0,20.997829,0,0.123675,-0.814416,-3.500415,51,51,51,51,,,,
0,20.991032,0,1.213194,-1.154232,-3.781839,51,51,51,51,,,,
0,20.986206,0,2.045974,-0.356731,-3.908132,51,51,51,51,,,,
0,20.997953,0,0.799808,-0.002355,-3.971351,51,51,51,51,,,,
0,19.989206,0,1.802439,0.542861,-4.033282,51,51,51,51,,,,
0,19.984861,0,2.147345,-0.599559,-4.037993,51,51,51,51,,,,
0,19.982227,0,2.348119,0.567043,-3.918434,51,51,51,51,,,,
0,20.984034,0,1.591961,1.568017,-3.804814,51,51,51,51,,,,
0,20.986031,0,2.034721,0.477517,-3.733645,51,51,51,51,,,,
0,20.990755,0,1.693029,-0.155797,-2.793722,51,51,51,51,,,,
0,20.998741,0,0.597326,0.192174,-2.272192,51,51,51,51,,,,
0,20.998653,0,-0.621351,-0.186598,-2.184136,51,51,51,51,,,,
0,21.990095,0,-1.688116,0.326311,-1.750316,51,51,51,51,,,,
0,21.973906,0,-2.780507,-0.240826,-1.530053,51,51,51,51,,,,
0,21.987577,0,-1.851777,-0.527898,-0.946749,51,51,51,51,,,,
0,21.992378,0,-1.1802,-0.939251,-0.123528,51,51,51,51,,,,
0,21.975809,0,-2.133288,-1.63439,0.186283,51,51,51,51,,,,
0,23.952391,0,-2.354099,-2.736986,0.560825,51,51,51,51,,,,
0,23.944771,0,-3.29515,-2.064347,0.930127,51,51,51,51,,,,
0,23.910528,0,-4.23127,-2.569053,1.418846,51,51,51,49,,,,
0,23.863861,0,-5.144922,-3.292038,1.654643,51,51,51,49,,,,
0,23.814983,0,-6.250583,-3.41414,2.000116,51,51,51,49,,,,
0,24.844244,0,-5.210656,-3.719578,2.569227,51,51,51,49,,,,
0,24.807148,0,-5.400085,-4.649289,3.17569,51,51,51,49,,,,
0,24.758799,0,-5.804681,-5.464021,3.761661,51,51,51,49,,,,
0,23.812956,0,-4.634023,-5.461361,4.396741,51,51,51,49,,,,
0,23.875013,0,-3.915109,-4.350104,4.578039,51,51,51,49,,,,
0,23.82859,0,-4.69308,-4.997901,4.745323,51,51,51,49,,,,
0,23.783434,0,-5.699322,-5.19048,4.760919,51,51,51,49,,,,
0,23.855396,0,-4.657229,-4.236534,4.841755,51,51,51,49,,,,
0,23.889307,0,-4.663887,-2.927871,4.901416,51,51,51,49,,,,
0,23.898239,0,-3.699824,-3.766825,4.936977,51,51,51,49,,,,
0,24.928661,0,-3.576828,-2.440969,4.908094,51,51,51,49,,,,
0,24.96571,0,-2.687635,-1.336119,4.875226,51,51,51,51,,,,
0,24.970427,0,-1.727532,-2.187532,4.832794,51,51,51,51,,,,
0,28.938568,0,-1.67771,-3.331887,4.695601,51,51,49,49,,,,
0,28.942974,0,-0.365976,-3.575099,4.621361,51,51,49,49,,,,
0,32.94767,0,0.842412,-3.115268,4.537201,49,51,49,49,,,,
0,32.933025,0,2.076518,-3.00365,4.434944,49,51,49,49,,,,
0,32.909721,0,3.227983,-2.749129,4.389534,49,51,49,49,,,,
0,34.945705,0,2.742355,-1.633752,4.277178,49,49,49,49,,,,
0,34.918861,0,3.710229,-1.209406,4.173666,49,51,49,49,,,,
0,34.870525,0,4.703795,-1.47725,4.140172,49,51,49,49,,,,
0,29.857784,0,4.887455,-2.698049,4.09574,49,51,49,51,,,,
0,29.917818,0,3.756808,-1.97132,4.026778,49,51,49,51,,,,
0,24.935982,0,2.776608,-3.019485,4.007128,51,51,49,51,,,,
0,24.950102,0,3.01978,-1.998398,4.078454,51,51,51,51,,,,
0,24.921648,0,3.986574,-2.168555,4.298449,51,51,49,51,,,,
0,20.910978,0,3.996849,-3.44912,4.511758,51,51,51,51,,,,
0,20.90118,0,3.910571,-3.956266,5.578882,51,51,51,51,,,,
0,20.932726,0,3.442948,-3.033416,6.064057,51,51,51,51,,,,
0,22.955942,0,2.334201,-2.671391,6.626952,51,51,51,51,,,,
0,22.962173,0,1.284735,-3.025185,7.364101,51,51,51,51,,,,
0,31.916874,0,0.838106,-4.04494,8.027205,51,51,49,49,,,,
0,31.908981,0,-0.401187,-4.303836,8.434096,51,51,49,49,,,,
0,31.909544,0,-1.410277,-4.072192,9.000743,51,51,49,49,,,,
0,42.906166,0,-1.516113,-3.46938,9.894234,49,49,49,49,,,,
0,42.920296,0,-1.835392,-2.967787,10.785854,49,49,49,49,,,,
0,42.909267,0,-2.475223,-2.781502,11.5843,49,49,49,49,,,,
0,43.884266,0,-1.863775,-3.716007,12.159101,49,49,49,49,,,,
0,43.89735,0,-1.387462,-3.660683,13.227148,49,49,49,49,,,,
0,43.903774,0,-2.074861,-3.172292,13.740121,49,49,49,49,,,,
0,38.873287,0,-1.851174,-4.233524,14.281314,49,49,49,49,,,,
0,38.812714,0,-2.134856,-5.197083,14.744613,49,49,49,49,,,,
0,38.742947,0,-2.802206,-5.958062,15.003758,51,49,49,49,,,,
0,30.750456,0,-3.748059,-6.239439,15.09579,51,51,49,49,,,,
0,30.711275,0,-2.824788,-7.301312,15.153388,51,51,49,49,,,,
0,24.755825,0,-3.757511,-7.084055,15.247764,51,51,51,49,,,,
0,24.681713,0,-3.911402,-8.281021,15.275698,51,51,51,49,,,,
0,24.753942,0,-3.72036,-7.138466,15.411314,51,51,51,49,,,,
0,20.731256,0,-4.14419,-8.194199,15.314744,51,51,51,49,,,,
0,20.799894,0,-3.185837,-7.250304,15.32856,51,51,51,49,,,,
0,19.75218,0,-3.505486,-8.325923,15.191169,51,51,51,49,,,,
0,19.744951,0,-2.222771,-8.888461,15.240583,51,51,51,49,,,,
0,19.747194,0,-0.872904,-9.078063,15.290789,51,51,51,51,,,,
0,20.674568,0,-0.418153,-10.091399,14.839737,51,51,49,49,,,,
0,20.674526,0,0.838142,-10.066159,14.863533,51,51,49,51,,,,
0,21.63022,0,1.982886,-10.333313,14.876275,51,51,49,51,,,,
0,21.656042,0,3.007367,-9.693334,14.887311,51,51,49,51,,,,
0,21.595633,0,2.423096,-10.735323,14.636235,51,51,49,51,,,,
0,23.654749,0,1.777062,-9.568089,14.318534,51,51,49,49,,,,
0,23.700312,0,0.457878,-9.052516,13.924728,51,51,49,49,,,,
0,22.726095,0,1.486314,-8.726565,13.816363,51,51,49,51,,,,
0,22.688101,0,0.40535,-9.437918,13.497293,51,51,49,49,,,,
0,22.615633,0,-0.076095,-10.48919,13.305634,51,51,49,49,,,,
0,23.525198,0,0.347094,-11.410607,13.283636,51,51,49,49,,,,
0,23.494553,0,1.312064,-11.70744,13.371951,51,51,49,49,,,,
0,23.411463,0,0.699049,-12.69591,13.139739,51,51,49,49,,,,
0,24.286804,0,0.25834,-13.716217,12.955702,51,51,49,49,,,,
0,24.19821,0,0.798775,-14.52861,13.013467,51,51,49,49,,,,
0,24.18058,0,1.843608,-14.596584,13.213042,51,51,49,49,,,,
0,27.02457,0,0.636354,-15.154851,12.889731,51,51,49,49,,,,
0,26.92024,0,-0.321993,-15.960321,12.634993,51,51,49,49,,,,
0,26.876621,0,-1.710975,-16.197165,12.246436,51,51,49,49,,,,
0,29.728704,0,-0.651981,-16.452965,12.485579,51,51,49,49,,,,
0,29.550797,0,-0.609993,-17.578211,12.437761,51,51,49,49,,,,
0,29.726404,0,-0.889541,-16.457144,12.276693,51,51,49,49,,,,
0,30.813692,0,-0.206852,-15.648586,12.398539,51,51,49,49,,,,
0,30.612232,0,-0.523632,-16.927837,12.193235,51,51,49,49,,,,
0,30.693583,0,0.371215,-16.424208,12.299899,51,51,49,49,,,,
0,26.844383,0,1.498094,-16.452312,12.487355,51,51,49,49,,,,
0,26.951519,0,1.894977,-15.617381,12.465059,51,51,49,49,,,,
0,26.885489,0,0.554452,-16.210812,11.915154,51,51,49,49,,,,
0,24.793987,0,0.977918,-17.492964,11.859556,51,51,49,49,,,,
0,24.737827,0,2.132397,-17.802835,12.044991,51,51,49,49,,,,
0,24.862516,0,2.189427,-16.87324,11.901348,51,51,49,49,,,,
0,24.013689,0,1.453781,-16.083941,11.511926,51,51,49,49,,,,
0,24.080347,0,2.214531,-15.434822,11.549978,51,51,49,49,,,,
0,24.065464,0,0.841764,-15.693483,11.005391,51,51,49,49,,,,
0,23.912949,0,1.276222,-16.911484,10.949323,51,51,49,49,,,,
0,23.774103,0,2.017662,-17.907516,10.991689,51,51,49,49,,,,
0,23.754135,0,1.566899,-18.099054,9.541093,51,51,49,49,,,,
0,23.89819,0,1.747039,-16.986788,9.360715,51,51,49,49,,,,
0,24.022648,0,0.899425,-16.049259,8.879519,51,51,49,49,,,,
0,25.025509,0,2.027067,-15.608573,8.913546,51,51,49,49,,,,
0,25.170732,0,2.076925,-14.36347,8.718306,51,51,49,49,,,,
0,25.158527,0,3.295852,-14.248159,8.792078,51,51,49,49,,,,
0,26.273771,0,3.011432,-12.98005,8.481691,51,51,49,49,,,,
0,26.335373,0,3.979459,-12.111386,8.469219,51,51,49,49,,,,
0,26.367737,0,5.047797,-11.366911,8.48035,51,51,49,49,,,,
0,27.308649,0,6.288263,-11.123851,8.485305,51,51,49,49,,,,
0,27.339643,0,5.112905,-11.386857,7.979981,51,51,49,49,,,,
0,27.242443,0,4.888168,-12.446947,7.618029,51,51,49,49,,,,
0,28.139372,0,6.111654,-12.612339,7.543221,51,51,49,49,,,,
0,28.2099,0,6.830126,-11.562087,7.450375,51,51,49,49,,,,
0,28.185389,0,7.991813,-11.055534,7.429175,51,51,49,49,,,,
0,28.225496,0,8.686973,-10.072272,7.292105,51,51,49,51,,,,
0,28.249262,0,9.367958,-9.148516,7.035065,51,51,49,51,,,,
0,27.38868,0,8.595123,-8.397935,6.644412,51,51,49,51,,,,
0,27.319395,0,9.707737,-8.163486,6.448406,51,51,49,51,,,,
0,27.42495,0,8.958663,-7.449909,6.032433,51,51,49,51,,,,
0,24.565754,0,8.435291,-6.598223,5.632358,51,51,49,51,,,,
0,24.497427,0,9.472501,-6.564906,5.339192,51,51,49,51,,,,
0,24.449003,0,10.35883,-6.193045,5.170512,51,51,49,51,,,,
0,23.560377,0,9.566477,-5.421377,4.888452,51,51,49,51,,,,
0,23.590689,0,9.6099,-4.486972,4.654294,51,51,49,51,,,,
0,23.682611,0,8.424633,-4.020144,4.414587,51,51,49,51,,,,
0,24.659939,0,8.883104,-3.269191,4.313916,49,51,49,51,,,,
0,24.742487,0,7.507926,-3.382653,4.455618,51,51,49,51,,,,
0,24.81171,0,6.122664,-3.474305,4.574711,51,51,49,51,,,,
0,31.835182,0,4.792815,-3.301517,4.722852,49,51,49,49,,,,
0,31.776892,0,5.130104,-4.423123,4.947001,49,51,49,49,,,,
0,90.580032,0,4.20027,-3.564278,4.976488,48,48,48,48,,,,
0,90.741577,0,2.998415,-3.110011,5.184412,48,48,48,48,,,,
0,90.847916,0,1.811631,-2.774276,5.474545,48,48,48,48,,,,
0,134.89299,0,0.974425,-2.063061,5.893254,47,47,47,47,,,,
0,134.926651,0,0.482568,-1.826216,6.768427,47,47,47,47,,,,
0,136.927231,0,-0.507105,-1.797313,7.245276,47,47,47,47,,,,
0,136.971283,0,-0.622328,-0.994617,7.880825,47,47,47,47,,,,
0,136.944656,0,-1.428739,-0.781846,8.4236,47,47,47,47,,,,
0,134.915909,0,-1.990676,-0.357413,9.046997,47,47,47,47,,,,
0,134.838211,0,-2.688026,-0.802967,9.613443,47,47,47,47,,,,
0,134.764435,0,-3.115249,-1.32553,10.352349,47,47,47,47,,,,
