Time,Lat,Lon,Roll,Pitch,Yaw,Hight,PWM1,PWM2,PWM3,PWM4
0,18.807802,0,0.575561,-0.735622,4.795785,50.000000,51.000000,51.000000,50.000000
0,20.875578,0,0.604505,-0.399556,8.156112,50.000000,51.000000,51.000000,50.000000
0,22.122063,0,0.693412,0.321705,10.210733,50.000000,51.000000,51.000000,50.000000
0,22.867756,0,-0.098582,0.830192,11.500654,50.000000,50.000000,50.000000,50.000000
0,23.712063,0,-0.811778,0.930733,12.136478,50.000000,50.000000,50.000000,50.000000
0,24.210630,0,-2.081500,0.765043,12.935810,50.000000,50.000000,50.000000,50.000000
0,24.501808,0,-3.659645,0.649542,13.629226,50.000000,50.000000,50.000000,50.000000
0,24.662090,0,-5.428378,0.439521,14.104188,50.000000,50.000000,50.000000,50.000000
0,24.754166,0,-6.882577,0.468086,14.635571,50.000000,50.000000,50.000000,50.000000
0,24.806894,0,-7.828125,-0.203756,15.151972,50.000000,50.000000,50.000000,50.000000
0,24.829453,0,-8.852337,-1.299877,15.747044,50.000000,50.000000,50.000000,50.000000
0,24.842192,0,-9.035445,-2.646012,16.216208,50.000000,50.000000,50.000000,50.000000
0,24.436033,0,-9.916727,-4.000763,16.672283,50.000000,50.000000,50.000000,50.000000
0,24.188110,0,-10.542178,-4.918548,17.087103,50.000000,50.000000,50.000000,50.000000
0,24.057362,0,-11.049118,-5.614353,17.633862,50.000000,50.000000,50.000000,50.000000
0,23.984766,0,-10.598027,-6.810139,18.158443,50.000000,50.000000,50.000000,50.000000
0,23.951704,0,-9.561012,-8.013206,18.583578,50.000000,50.000000,50.000000,50.000000
0,23.945372,0,-8.552374,-8.744686,18.975819,50.000000,50.000000,50.000000,50.000000
0,23.541710,0,-7.475382,-9.634829,19.686342,50.000000,51.000000,50.000000,50.000000
0,23.300142,0,-5.896256,-10.513193,20.210381,50.000000,51.000000,50.000000,50.000000
0,23.151386,0,-5.071936,-10.969328,20.583616,50.000000,51.000000,50.000000,50.000000
0,23.066170,0,-3.831891,-10.903082,20.966715,50.000000,51.000000,50.000000,50.000000
0,23.008957,0,-2.626559,-10.893976,21.399796,50.000000,51.000000,50.000000,50.000000
0,22.960548,0,-1.773278,-10.789507,21.640228,50.000000,51.000000,50.000000,50.000000
0,22.942444,0,-0.647027,-9.946791,22.022636,50.000000,51.000000,50.000000,50.000000
0,22.923487,0,0.646689,-9.561722,22.625883,50.000000,51.000000,50.000000,50.000000
0,22.927105,0,1.887754,-8.317832,22.990490,50.000000,51.000000,50.000000,50.000000
0,22.937994,0,3.086535,-6.949016,23.584221,50.000000,51.000000,50.000000,50.000000
0,22.552803,0,4.507082,-5.291541,24.151817,50.000000,51.000000,50.000000,50.000000
0,22.324089,0,5.036191,-3.409251,24.463764,50.000000,50.000000,50.000000,50.000000
0,22.183418,0,4.968526,-1.568546,24.734953,50.000000,50.000000,50.000000,50.000000
0,22.105738,0,5.753046,0.218955,25.014095,50.000000,50.000000,50.000000,50.000000
0,22.051105,0,5.560435,1.489637,25.252537,50.000000,50.000000,50.000000,50.000000
0,22.023897,0,5.405046,2.670138,25.424932,50.000000,50.000000,50.000000,50.000000
0,22.397650,0,4.779139,3.746749,25.710583,50.000000,50.000000,50.000000,50.000000
0,22.613958,0,3.650691,4.734279,25.950748,50.000000,50.000000,50.000000,50.000000
0,22.732872,0,2.097308,5.377761,26.360180,50.000000,50.000000,50.000000,50.000000
0,23.183674,0,0.352027,5.478724,26.654579,50.000000,50.000000,50.000000,50.000000
0,23.434301,0,-1.602784,5.539187,26.931429,50.000000,50.000000,50.000000,50.000000
0,23.584118,0,-3.603946,5.560605,27.421906,50.000000,50.000000,50.000000,50.000000
0,24.043140,0,-5.397086,5.078763,27.784142,50.000000,50.000000,50.000000,50.000000
0,24.326139,0,-7.068823,4.671349,28.278032,50.000000,50.000000,50.000000,50.000000
0,24.466301,0,-8.509432,3.942828,28.632599,50.000000,50.000000,50.000000,50.000000
0,24.543467,0,-10.149390,3.328160,29.137835,50.000000,50.000000,50.000000,50.000000
0,24.162752,0,-11.298603,2.585545,29.466269,50.000000,50.000000,50.000000,50.000000
0,23.968628,0,-12.199734,1.667436,29.659479,50.000000,50.000000,50.000000,50.000000
0,23.832832,0,-12.751057,0.498069,29.963444,50.000000,50.000000,50.000000,50.000000
0,23.754078,0,-12.818550,-0.093832,30.048075,50.000000,50.000000,50.000000,50.000000
0,23.696533,0,-13.661002,-1.001705,30.136345,50.000000,50.000000,50.000000,50.000000
0,23.646069,0,-14.047691,-1.375002,30.297958,50.000000,50.000000,50.000000,50.000000
0,23.231777,0,-13.860526,-1.223594,30.276255,50.000000,50.000000,50.000000,50.000000
0,22.955694,0,-13.589466,-0.913042,30.302105,50.000000,50.000000,50.000000,50.000000
0,22.765261,0,-13.498553,-0.098747,30.337404,50.000000,50.000000,50.000000,50.000000
0,22.689581,0,-12.872018,0.088090,30.329626,50.000000,50.000000,50.000000,50.000000
0,22.676048,0,-11.828619,-0.016648,30.359158,50.000000,50.000000,50.000000,50.000000
0,22.695915,0,-10.440759,-0.064254,30.433212,50.000000,50.000000,50.000000,50.000000
0,22.298935,0,-9.283289,0.808404,30.563971,50.000000,50.000000,50.000000,50.000000
0,22.034632,0,-8.639929,1.996433,30.830200,50.000000,50.000000,50.000000,50.000000
0,21.878723,0,-7.924921,2.904028,31.044647,50.000000,50.000000,50.000000,50.000000
0,21.784775,0,-7.525149,3.638355,31.282274,50.000000,50.000000,50.000000,50.000000
0,21.721088,0,-7.470490,4.278987,31.599552,50.000000,50.000000,50.000000,50.000000
0,21.712177,0,-6.975060,5.186570,31.813622,50.000000,50.000000,50.000000,50.000000
0,21.734570,0,-6.488188,6.138740,31.832165,50.000000,50.000000,50.000000,50.000000
0,21.737192,0,-6.562694,6.708537,32.040752,50.000000,50.000000,50.000000,50.000000
0,21.761480,0,-6.371488,7.219406,32.210987,50.000000,50.000000,51.000000,50.000000
0,21.798731,0,-6.237703,7.759222,32.223980,50.000000,50.000000,51.000000,50.000000
0,21.838957,0,-6.062260,7.828427,32.269928,50.000000,50.000000,51.000000,50.000000
0,22.276518,0,-5.910368,7.808445,32.233208,50.000000,50.000000,50.000000,50.000000
0,22.551678,0,-5.766261,7.453244,32.077507,50.000000,50.000000,50.000000,50.000000
0,22.707739,0,-6.258531,6.758256,32.078835,50.000000,50.000000,50.000000,50.000000
0,22.807156,0,-6.843404,5.496768,32.243202,50.000000,50.000000,50.000000,50.000000
0,22.855391,0,-7.735019,4.900170,32.291672,50.000000,50.000000,50.000000,50.000000
0,22.876236,0,-8.742033,4.361986,32.462589,50.000000,50.000000,50.000000,50.000000
0,22.893032,0,-8.974340,4.093670,32.560623,50.000000,50.000000,50.000000,50.000000
0,22.893621,0,-9.580280,3.555609,32.554211,50.000000,50.000000,50.000000,50.000000
0,22.907486,0,-9.471191,2.931045,32.528637,50.000000,50.000000,50.000000,50.000000
0,22.924589,0,-8.868870,2.104669,32.761044,50.000000,50.000000,50.000000,50.000000
0,22.924683,0,-8.246280,1.719725,32.829277,50.000000,50.000000,50.000000,50.000000
0,22.935633,0,-7.835797,0.839988,32.837524,50.000000,50.000000,50.000000,50.000000
0,22.930935,0,-7.362252,0.332694,32.911934,50.000000,50.000000,50.000000,50.000000
0,22.941933,0,-6.264913,-0.545740,32.973991,50.000000,50.000000,50.000000,50.000000
0,22.956421,0,-5.414998,-1.779969,32.966240,50.000000,50.000000,50.000000,50.000000
0,22.955433,0,-4.656702,-2.460259,33.008102,50.000000,50.000000,50.000000,50.000000
0,22.963682,0,-3.420369,-3.123713,33.040344,50.000000,50.000000,50.000000,50.000000
0,22.972151,0,-2.560667,-4.133072,33.091465,50.000000,50.000000,50.000000,50.000000
0,22.981909,0,-1.260644,-4.880148,33.260937,50.000000,50.000000,50.000000,50.000000
0,22.985533,0,0.093439,-4.788130,33.339149,50.000000,50.000000,50.000000,50.000000
0,22.980762,0,1.299320,-4.144889,33.544262,50.000000,50.000000,50.000000,50.000000
0,22.974096,0,2.506983,-3.512421,33.839439,50.000000,50.000000,50.000000,50.000000
0,22.975849,0,3.697053,-3.096348,34.045948,50.000000,50.000000,50.000000,50.000000
0,22.982676,0,4.577865,-2.951837,34.099930,50.000000,50.000000,50.000000,50.000000
0,22.985512,0,4.656532,-2.382413,34.283089,50.000000,50.000000,50.000000,50.000000
0,22.988506,0,5.044227,-1.883296,34.437580,50.000000,50.000000,50.000000,50.000000
0,22.988945,0,4.761472,-0.834509,34.474293,50.000000,50.000000,50.000000,50.000000
0,22.992975,0,4.812813,-0.437463,34.704163,50.000000,50.000000,50.000000,50.000000
0,22.995399,0,4.230312,0.053911,34.886307,50.000000,50.000000,50.000000,50.000000
0,22.996559,0,3.891363,0.973419,35.093803,50.000000,50.000000,50.000000,50.000000
0,22.997478,0,3.226356,1.466179,35.124985,50.000000,50.000000,50.000000,50.000000
0,22.996288,0,2.511698,1.876253,35.252182,50.000000,50.000000,50.000000,50.000000
0,22.993441,0,1.201874,2.340651,35.359444,50.000000,50.000000,50.000000,50.000000
0,22.995440,0,0.446321,3.275229,35.439522,50.000000,50.000000,50.000000,50.000000
0,22.995855,0,-0.871109,4.046587,35.624790,50.000000,50.000000,50.000000,50.000000
0,22.992748,0,-2.372013,5.061206,35.711220,50.000000,50.000000,50.000000,50.000000
0,22.983980,0,-4.226220,5.984025,35.742558,50.000000,50.000000,50.000000,50.000000
0,22.967358,0,-6.179016,6.913014,35.759327,50.000000,50.000000,50.000000,50.000000
0,22.943409,0,-8.497581,7.381285,35.781296,50.000000,50.000000,50.000000,50.000000
0,22.944014,0,-9.727053,7.317502,35.818424,50.000000,50.000000,50.000000,50.000000
0,22.937813,0,-10.738774,7.565412,35.771118,50.000000,50.000000,50.000000,50.000000
0,22.940256,0,-11.375622,7.035399,35.613564,50.000000,50.000000,50.000000,50.000000
0,22.935032,0,-11.955957,6.920312,35.499794,50.000000,50.000000,50.000000,50.000000
0,22.929438,0,-12.443194,5.954432,35.509903,50.000000,50.000000,50.000000,50.000000
0,22.928343,0,-12.463552,4.745558,35.444069,50.000000,50.000000,50.000000,50.000000
0,22.935503,0,-11.859418,4.110945,35.389553,50.000000,50.000000,50.000000,50.000000
0,22.943882,0,-11.036571,3.043640,35.401680,50.000000,50.000000,50.000000,50.000000
0,23.345549,0,-9.974446,2.561335,35.395996,50.000000,50.000000,50.000000,50.000000
0,23.588692,0,-8.992823,1.532209,35.424301,50.000000,50.000000,50.000000,50.000000
0,23.745249,0,-7.106178,0.566115,35.438442,50.000000,50.000000,50.000000,50.000000
0,24.239038,0,-5.221494,0.319232,35.513313,50.000000,50.000000,50.000000,50.000000
0,24.532137,0,-4.089786,-0.121909,35.555664,50.000000,50.000000,50.000000,50.000000
0,24.713106,0,-2.473131,-0.512240,35.638535,50.000000,50.000000,50.000000,50.000000
0,24.812092,0,-1.696004,-0.426067,35.683586,50.000000,50.000000,50.000000,50.000000
0,24.867579,0,-0.526600,-0.166859,35.710155,50.000000,50.000000,50.000000,50.000000
0,24.910889,0,0.731858,-0.240064,35.742535,50.000000,50.000000,50.000000,50.000000
0,24.943525,0,2.329316,-0.443354,35.701492,50.000000,50.000000,50.000000,50.000000
0,24.556038,0,3.186996,-0.142331,35.655594,50.000000,50.000000,50.000000,50.000000
0,24.311794,0,3.504838,0.538617,35.671577,50.000000,50.000000,50.000000,50.000000
0,24.173916,0,3.731150,0.603004,35.676594,50.000000,50.000000,50.000000,50.000000
0,24.079308,0,3.350920,1.327527,35.635059,50.000000,50.000000,50.000000,50.000000
0,24.005487,0,2.858309,2.179035,35.648552,50.000000,50.000000,50.000000,50.000000
0,23.558372,0,2.089415,2.640777,35.641098,50.000000,50.000000,50.000000,50.000000
0,23.305946,0,1.752030,2.836221,35.635040,50.000000,50.000000,50.000000,50.000000
0,23.136986,0,0.581218,3.381870,35.639862,50.000000,50.000000,50.000000,50.000000
0,23.050291,0,-0.225107,3.389426,35.700943,50.000000,50.000000,50.000000,50.000000
0,22.995001,0,-0.800401,4.036660,35.705029,50.000000,50.000000,50.000000,50.000000
0,22.974699,0,-1.219310,4.196452,35.648716,50.000000,50.000000,50.000000,50.000000
0,22.950144,0,-2.432476,4.199569,35.753101,50.000000,50.000000,50.000000,50.000000
0,22.943483,0,-2.983045,4.518594,35.795185,50.000000,50.000000,50.000000,50.000000
0,22.932287,0,-4.106833,4.299506,35.952835,50.000000,50.000000,50.000000,50.000000
0,22.907314,0,-5.323239,4.349956,36.023571,50.000000,50.000000,50.000000,50.000000
0,22.910019,0,-5.854708,4.127641,36.088825,50.000000,50.000000,50.000000,50.000000
0,22.896441,0,-6.886368,3.854739,36.176010,50.000000,50.000000,50.000000,50.000000
0,22.899458,0,-7.511826,3.198956,36.217743,50.000000,50.000000,50.000000,50.000000
0,22.911036,0,-7.507452,2.313173,36.228664,50.000000,50.000000,50.000000,50.000000
0,22.931023,0,-6.873380,1.525449,36.189613,50.000000,50.000000,50.000000,50.000000
0,23.338562,0,-6.344139,1.577753,36.186581,50.000000,50.000000,50.000000,50.000000
0,23.594118,0,-5.511668,1.310519,36.163689,50.000000,50.000000,50.000000,50.000000
0,23.751623,0,-4.470872,0.736823,36.142666,50.000000,50.000000,50.000000,50.000000
0,23.849791,0,-3.211724,0.014316,36.199345,50.000000,50.000000,50.000000,50.000000
0,23.907434,0,-2.474427,0.039692,36.179451,50.000000,50.000000,50.000000,50.000000
0,23.944242,0,-1.332691,-0.546569,36.203033,50.000000,50.000000,50.000000,50.000000
0,23.965181,0,-0.323934,-0.268921,36.250690,50.000000,50.000000,50.000000,50.000000
0,23.978905,0,0.812665,-0.730108,36.238678,50.000000,50.000000,50.000000,50.000000
0,23.985874,0,1.263613,-1.320606,36.266815,50.000000,50.000000,50.000000,50.000000
0,23.987524,0,2.398132,-1.944448,36.325317,50.000000,50.000000,50.000000,50.000000
0,23.592100,0,2.958976,-1.780343,36.266777,50.000000,50.000000,50.000000,50.000000
0,23.350943,0,3.237825,-2.075575,36.169342,50.000000,50.000000,50.000000,50.000000
0,23.201500,0,3.051372,-2.340261,36.229671,50.000000,50.000000,50.000000,50.000000
0,23.110590,0,3.319538,-2.520108,36.289661,50.000000,50.000000,50.000000,50.000000
0,23.062983,0,4.017854,-2.443851,36.327538,50.000000,50.000000,50.000000,50.000000
0,23.037100,0,4.587381,-1.827567,36.511272,50.000000,50.000000,50.000000,50.000000
0,23.021767,0,5.223811,-1.215801,36.613091,50.000000,50.000000,50.000000,50.000000
0,23.012182,0,5.247960,-1.078322,36.761227,50.000000,50.000000,50.000000,50.000000
0,23.007086,0,5.090057,-0.395276,36.742466,50.000000,50.000000,50.000000,50.000000
0,23.402021,0,4.372442,0.166640,36.666451,50.000000,50.000000,50.000000,50.000000
0,23.639629,0,3.866817,0.160479,36.662785,50.000000,50.000000,50.000000,50.000000
0,23.777651,0,3.023871,0.310121,36.676369,50.000000,50.000000,50.000000,50.000000
0,23.861973,0,2.430864,0.887632,36.703907,50.000000,50.000000,50.000000,50.000000
0,23.908360,0,1.412344,0.960805,36.753578,50.000000,50.000000,50.000000,50.000000
0,23.938007,0,0.764522,1.404183,36.736656,50.000000,50.000000,50.000000,50.000000
0,23.957956,0,0.147612,1.182673,36.726307,50.000000,50.000000,50.000000,50.000000
0,23.964651,0,-0.856903,0.550186,36.781853,50.000000,50.000000,50.000000,50.000000
0,23.975159,0,-1.206380,0.188651,36.799709,50.000000,50.000000,50.000000,50.000000
0,24.382734,0,-1.700089,0.474907,36.849457,50.000000,50.000000,50.000000,50.000000
0,24.627197,0,-2.056381,0.038045,36.914871,50.000000,50.000000,50.000000,50.000000
0,24.768354,0,-3.054261,-0.252684,36.963165,50.000000,50.000000,50.000000,50.000000
0,24.843594,0,-4.492381,-0.592827,36.999039,50.000000,50.000000,50.000000,50.000000
0,24.478935,0,-5.938776,-1.012000,37.116829,50.000000,50.000000,50.000000,50.000000
0,24.270014,0,-6.802454,-0.747581,37.143753,50.000000,50.000000,50.000000,50.000000
0,24.153912,0,-6.849064,-0.986211,37.136185,50.000000,50.000000,50.000000,50.000000
0,24.079155,0,-7.348206,-0.669763,37.123203,50.000000,50.000000,50.000000,50.000000
0,24.022846,0,-8.090512,-0.610195,37.149513,50.000000,50.000000,50.000000,50.000000
0,24.001648,0,-7.922630,-0.796178,37.155964,50.000000,50.000000,50.000000,50.000000
0,23.978077,0,-8.468138,-0.670309,37.129848,50.000000,50.000000,50.000000,50.000000
0,23.967285,0,-8.767929,-1.204398,37.200912,50.000000,50.000000,50.000000,50.000000
0,23.971840,0,-7.828210,-1.668955,37.207203,50.000000,50.000000,50.000000,50.000000
0,23.981157,0,-6.944072,-1.723911,37.253227,50.000000,50.000000,50.000000,50.000000
0,23.585976,0,-5.882270,-2.054409,37.287354,50.000000,50.000000,50.000000,50.000000
0,23.349298,0,-5.212774,-1.947513,37.271221,50.000000,50.000000,50.000000,50.000000
0,23.209471,0,-3.902479,-2.003275,37.307922,50.000000,50.000000,50.000000,50.000000
0,23.124113,0,-3.382881,-1.609605,37.331207,50.000000,50.000000,50.000000,50.000000
0,23.073624,0,-2.925387,-1.886046,37.384930,50.000000,50.000000,50.000000,50.000000
0,23.041615,0,-2.211191,-1.810550,37.391613,50.000000,50.000000,50.000000,50.000000
0,23.022932,0,-1.571530,-2.158811,37.523514,50.000000,50.000000,50.000000,50.000000
0,23.009775,0,-0.916037,-2.151349,37.484688,50.000000,50.000000,50.000000,50.000000
0,22.995495,0,-0.815934,-2.513690,37.562073,50.000000,50.000000,50.000000,50.000000
0,22.993288,0,-0.189593,-2.284732,37.660580,50.000000,50.000000,50.000000,50.000000
0,22.992720,0,0.620448,-1.610646,37.717171,50.000000,50.000000,50.000000,50.000000
0,22.995119,0,1.585699,-1.497256,37.816887,50.000000,50.000000,50.000000,50.000000
0,22.994848,0,2.814832,-1.922201,37.835567,50.000000,50.000000,50.000000,50.000000
0,22.988901,0,3.208521,-2.596485,37.990475,50.000000,50.000000,50.000000,50.000000
0,22.977514,0,3.777327,-3.659810,38.098083,50.000000,50.000000,50.000000,50.000000
0,23.377766,0,4.242244,-3.859608,38.100246,50.000000,50.000000,50.000000,50.000000
0,23.607553,0,4.402807,-4.369713,38.252121,50.000000,50.000000,50.000000,50.000000
0,23.736441,0,5.099948,-4.912679,38.329369,50.000000,50.000000,50.000000,50.000000
0,23.818985,0,5.043215,-5.100014,38.523312,50.000000,50.000000,50.000000,50.000000
0,23.067598,0,5.108034,-5.258538,38.723877,50.000000,50.000000,50.000000,50.000000
0,22.625605,0,4.665889,-5.066279,38.888592,50.000000,50.000000,50.000000,50.000000
0,22.360533,0,4.217346,-4.765073,39.045719,50.000000,50.000000,50.000000,50.000000
0,22.192888,0,3.991522,-4.752587,39.298580,50.000000,50.000000,50.000000,50.000000
0,22.103483,0,3.356797,-4.243772,39.436844,50.000000,50.000000,50.000000,50.000000
0,22.049273,0,2.532355,-4.230204,39.538338,50.000000,50.000000,50.000000,50.000000
0,22.024553,0,1.418102,-3.788332,39.593609,50.000000,50.000000,50.000000,50.000000
0,22.013634,0,0.145519,-3.174257,39.661659,50.000000,50.000000,50.000000,50.000000
0,22.003712,0,-0.149478,-2.968571,39.688625,50.000000,50.000000,50.000000,50.000000
0,22.398291,0,-1.181015,-2.795066,39.741795,50.000000,50.000000,50.000000,50.000000
0,22.628185,0,-1.508382,-3.099612,39.798653,50.000000,50.000000,50.000000,50.000000
0,22.766624,0,-2.143504,-3.084963,39.941082,50.000000,50.000000,50.000000,50.000000
0,22.445889,0,-2.881429,-3.344113,40.078617,50.000000,50.000000,50.000000,50.000000
0,22.248798,0,-3.789192,-3.271682,40.103664,50.000000,50.000000,50.000000,50.000000
0,22.127195,0,-4.796260,-3.216968,40.125149,50.000000,50.000000,50.000000,50.000000
0,22.459322,0,-4.776629,-3.034397,40.131783,50.000000,50.000000,50.000000,50.000000
0,22.659101,0,-4.319021,-2.811851,40.122749,50.000000,50.000000,50.000000,50.000000
0,22.776054,0,-3.423161,-2.903226,40.199028,50.000000,50.000000,50.000000,50.000000
0,22.450800,0,-3.433826,-2.421229,40.119560,50.000000,50.000000,50.000000,50.000000
0,22.250511,0,-3.665910,-2.272293,40.022541,50.000000,50.000000,50.000000,50.000000
0,22.139061,0,-2.936042,-1.803300,40.068790,50.000000,50.000000,50.000000,50.000000
0,22.070213,0,-3.020599,-1.050653,39.941689,50.000000,50.000000,50.000000,50.000000
0,22.030632,0,-2.061391,-0.783032,40.018185,50.000000,50.000000,50.000000,50.000000
0,22.014492,0,-1.119455,-0.130403,40.016884,50.000000,50.000000,50.000000,50.000000
0,22.003912,0,-1.067992,0.728578,39.867481,50.000000,50.000000,50.000000,50.000000
0,21.995752,0,-0.284045,0.667091,39.909271,50.000000,50.000000,50.000000,50.000000
0,21.995031,0,-0.091557,1.249094,39.811440,50.000000,50.000000,50.000000,50.000000
0,21.992796,0,-0.140267,2.001794,39.797935,50.000000,50.000000,50.000000,50.000000
0,22.393841,0,0.468811,1.978995,39.823864,50.000000,50.000000,50.000000,50.000000
0,22.630394,0,1.013165,1.228767,39.892746,50.000000,50.000000,50.000000,50.000000
0,22.770220,0,0.612791,1.158395,39.789322,50.000000,50.000000,50.000000,50.000000
0,22.845444,0,0.379989,0.276019,39.826645,50.000000,50.000000,50.000000,50.000000
0,22.878393,0,0.052279,-0.832798,39.909218,50.000000,50.000000,50.000000,50.000000
0,22.911394,0,-0.061430,-1.167092,39.943733,50.000000,50.000000,50.000000,50.000000
0,22.932690,0,0.161065,-1.542447,39.940922,50.000000,50.000000,50.000000,50.000000
0,22.954126,0,0.355057,-1.543327,39.916286,50.000000,50.000000,50.000000,50.000000
0,22.960432,0,0.070941,-2.054993,39.928532,50.000000,50.000000,50.000000,50.000000
0,22.972046,0,0.016243,-2.142755,40.062897,50.000000,50.000000,50.000000,50.000000
0,22.982534,0,-0.155436,-1.795529,40.041927,50.000000,50.000000,50.000000,50.000000
0,22.985142,0,-0.592766,-2.234890,40.079643,50.000000,50.000000,50.000000,50.000000
0,22.581579,0,-0.819216,-3.038027,40.101189,50.000000,50.000000,50.000000,50.000000
0,22.331192,0,-0.779114,-3.970914,40.137844,50.000000,50.000000,50.000000,50.000000
0,22.182934,0,-1.302775,-4.402537,40.108036,50.000000,50.000000,50.000000,50.000000
0,22.085058,0,-2.050834,-5.184205,40.181473,50.000000,50.000000,50.000000,50.000000
0,22.011257,0,-2.461121,-6.019573,40.261414,50.000000,50.000000,50.000000,50.000000
0,21.979834,0,-2.943295,-5.959635,40.246380,50.000000,50.000000,50.000000,50.000000
0,22.353245,0,-3.746937,-6.129557,40.216228,50.000000,50.000000,50.000000,50.000000
0,22.573294,0,-3.989162,-6.304472,40.249611,50.000000,50.000000,50.000000,50.000000
0,22.707121,0,-3.755252,-6.459535,40.325310,50.000000,50.000000,50.000000,50.000000
0,22.789639,0,-3.766204,-6.407619,40.347294,50.000000,50.000000,50.000000,50.000000
0,22.836126,0,-4.432449,-5.887020,40.277534,50.000000,50.000000,50.000000,50.000000
0,22.874937,0,-4.011365,-5.456678,40.204391,50.000000,50.000000,50.000000,50.000000
0,22.888428,0,-4.364443,-5.196139,40.213028,50.000000,50.000000,50.000000,50.000000
0,22.897593,0,-3.716562,-5.248506,40.261791,50.000000,50.000000,50.000000,50.000000
0,22.487907,0,-3.664177,-5.447651,40.272381,50.000000,50.000000,50.000000,50.000000
0,22.227446,0,-3.614566,-5.631552,40.292606,50.000000,50.000000,50.000000,50.000000
0,22.084116,0,-3.891936,-5.249500,40.282337,50.000000,50.000000,50.000000,50.000000
0,21.999048,0,-3.300806,-5.106837,40.338364,50.000000,50.000000,50.000000,50.000000
0,21.953056,0,-2.504963,-4.824767,40.351646,50.000000,50.000000,50.000000,50.000000
0,21.922735,0,-1.360061,-4.757248,40.439289,50.000000,50.000000,50.000000,50.000000
0,22.301086,0,-0.143473,-4.534516,40.509121,50.000000,50.000000,50.000000,50.000000
0,22.544153,0,0.469951,-4.242871,40.655216,50.000000,50.000000,50.000000,50.000000
0,22.697136,0,0.229466,-3.532960,40.548668,50.000000,50.000000,50.000000,50.000000
0,22.784740,0,0.871097,-3.393364,40.643425,50.000000,50.000000,50.000000,50.000000
0,22.851040,0,1.507411,-2.985794,40.640259,50.000000,50.000000,50.000000,50.000000
0,22.890574,0,1.291381,-2.509821,40.464901,50.000000,50.000000,50.000000,50.000000
0,22.922632,0,1.672630,-2.000210,40.484928,50.000000,50.000000,50.000000,50.000000
0,22.548887,0,2.016976,-1.168276,40.431095,50.000000,50.000000,50.000000,50.000000
0,22.323542,0,2.823236,-0.765979,40.509888,50.000000,50.000000,50.000000,50.000000
0,22.187128,0,2.851583,-0.689996,40.563698,50.000000,50.000000,50.000000,50.000000
0,22.108335,0,3.303117,-0.447036,40.664555,50.000000,50.000000,50.000000,50.000000
0,22.056435,0,4.102264,-0.300329,40.772507,50.000000,50.000000,50.000000,50.000000
0,22.018938,0,4.817469,0.153506,40.729660,50.000000,50.000000,50.000000,50.000000
0,21.986338,0,5.451104,0.602916,40.616924,50.000000,50.000000,50.000000,50.000000
0,21.972998,0,5.539536,1.235439,40.572659,50.000000,50.000000,50.000000,50.000000
0,21.954273,0,5.598601,1.874617,40.513069,50.000000,50.000000,50.000000,50.000000
0,21.946051,0,5.875465,1.737249,40.509201,50.000000,50.000000,50.000000,50.000000
0,21.951553,0,5.301990,1.760823,40.494122,50.000000,50.000000,50.000000,50.000000
0,21.951910,0,5.332611,1.154474,40.508099,50.000000,50.000000,50.000000,50.000000
0,21.939171,0,5.421562,0.935500,40.471699,50.000000,50.000000,50.000000,50.000000
0,21.942348,0,5.000139,1.033828,40.481548,50.000000,50.000000,50.000000,50.000000
0,21.948814,0,4.686393,0.898856,40.784420,50.000000,50.000000,50.000000,50.000000
0,21.958223,0,3.685281,1.142296,40.839058,50.000000,50.000000,50.000000,50.000000
0,21.971285,0,2.881513,0.744121,40.949421,50.000000,50.000000,50.000000,50.000000
0,21.974348,0,2.826913,0.470060,41.051632,50.000000,50.000000,50.000000,50.000000
0,21.967690,0,2.975427,0.173422,40.921623,50.000000,50.000000,50.000000,50.000000
0,21.951532,0,3.579506,0.207051,40.917179,50.000000,50.000000,50.000000,50.000000
0,21.954948,0,3.335629,0.083938,40.843918,50.000000,50.000000,50.000000,50.000000
0,21.946751,0,3.450040,0.329795,40.893898,50.000000,50.000000,50.000000,50.000000
0,21.953379,0,2.829109,0.613684,40.855450,50.000000,50.000000,50.000000,50.000000
0,21.948557,0,3.165668,0.582351,40.924290,50.000000,50.000000,50.000000,50.000000
0,21.957300,0,2.968962,0.395615,40.949612,50.000000,50.000000,50.000000,50.000000
0,21.969995,0,2.229976,0.097333,41.002342,50.000000,50.000000,50.000000,50.000000
0,21.980690,0,1.417703,-0.274503,41.033810,50.000000,50.000000,50.000000,50.000000
0,21.985386,0,1.425239,-0.059720,41.067135,50.000000,50.000000,50.000000,50.000000
0,21.989798,0,1.031302,-0.305312,41.076035,50.000000,50.000000,50.000000,50.000000
0,21.993603,0,0.601686,0.085283,41.122719,50.000000,50.000000,50.000000,50.000000
0,21.992546,0,0.296885,0.958702,41.115063,50.000000,50.000000,50.000000,50.000000
0,21.989389,0,-0.438285,1.623787,41.130013,50.000000,50.000000,50.000000,50.000000
0,21.983593,0,-0.312793,2.517677,41.099808,50.000000,50.000000,50.000000,50.000000
0,21.986483,0,-0.371423,2.603810,41.118839,50.000000,50.000000,50.000000,50.000000
0,21.991280,0,-0.098210,2.324520,41.088707,50.000000,50.000000,50.000000,50.000000
0,21.994314,0,-0.389635,2.294745,41.059174,50.000000,50.000000,50.000000,50.000000
0,21.995071,0,-0.402580,1.601600,41.098915,50.000000,50.000000,50.000000,50.000000
0,22.396938,0,-0.590427,1.986690,41.032730,50.000000,50.000000,50.000000,50.000000
0,22.636683,0,-0.614395,1.571254,41.162056,50.000000,50.000000,50.000000,50.000000
0,22.780739,0,-0.257021,1.475492,41.091202,50.000000,50.000000,50.000000,50.000000
0,22.862671,0,0.443217,1.077263,41.184246,50.000000,50.000000,50.000000,50.000000
0,22.905962,0,1.005739,0.250646,41.194836,50.000000,50.000000,50.000000,50.000000
0,22.938583,0,0.730475,0.010433,41.081581,50.000000,50.000000,50.000000,50.000000
0,22.951624,0,1.163903,-0.385313,41.058434,50.000000,50.000000,50.000000,50.000000
0,22.961201,0,0.936591,-1.082229,41.040966,50.000000,50.000000,50.000000,50.000000
0,22.972868,0,0.717620,-1.385584,41.104397,50.000000,50.000000,50.000000,50.000000
0,22.979353,0,0.328666,-1.722020,41.190353,50.000000,50.000000,50.000000,50.000000
0,22.981272,0,0.456096,-2.172920,41.166656,50.000000,50.000000,50.000000,50.000000
0,22.981216,0,0.182830,-2.686197,41.169327,50.000000,50.000000,50.000000,50.000000
0,22.986773,0,0.335478,-2.719741,41.157825,50.000000,50.000000,50.000000,50.000000
0,22.591320,0,0.782664,-2.551288,41.149273,50.000000,50.000000,50.000000,50.000000
0,22.350473,0,1.169105,-3.060612,41.155663,50.000000,50.000000,50.000000,50.000000
0,22.208654,0,1.079441,-3.255553,41.145813,50.000000,50.000000,50.000000,50.000000
0,22.121880,0,1.548301,-3.524885,41.132446,50.000000,50.000000,50.000000,50.000000
0,22.072718,0,1.662570,-3.300437,41.095726,50.000000,50.000000,50.000000,50.000000
0,22.042992,0,0.978318,-3.144104,41.089149,50.000000,50.000000,50.000000,50.000000
0,22.023840,0,0.858626,-3.574659,41.013939,50.000000,50.000000,50.000000,50.000000
0,22.008568,0,0.402347,-3.829391,40.932774,50.000000,50.000000,50.000000,50.000000
0,21.992495,0,0.226818,-4.580780,40.890957,50.000000,50.000000,50.000000,50.000000
0,22.385283,0,-0.217911,-4.532711,40.862331,50.000000,50.000000,50.000000,50.000000
0,22.624163,0,0.034941,-4.620470,40.895599,50.000000,50.000000,50.000000,50.000000
0,22.767424,0,0.733722,-4.268531,40.871513,50.000000,50.000000,50.000000,50.000000
0,23.643959,0,1.340796,-4.274100,40.893936,50.000000,50.000000,50.000000,50.000000
0,24.173725,0,1.284598,-4.293765,40.794952,50.000000,50.000000,50.000000,50.000000
0,24.481359,0,1.706705,-4.517596,40.812645,50.000000,50.000000,50.000000,50.000000
0,23.869951,0,1.407529,-4.591022,40.743622,50.000000,50.000000,50.000000,50.000000
0,23.506924,0,0.655496,-4.087732,40.610119,50.000000,50.000000,50.000000,50.000000
0,22.896927,0,0.219636,-3.313103,40.550594,50.000000,50.000000,50.000000,50.000000
0,22.523333,0,-0.359176,-3.198117,40.538109,50.000000,50.000000,50.000000,50.000000
0,22.304014,0,-0.884829,-2.743025,40.487514,50.000000,50.000000,50.000000,50.000000
0,21.778893,0,-1.226186,-1.799301,40.331955,50.000000,50.000000,50.000000,50.000000
0,21.463417,0,-1.648812,-0.779083,40.293514,50.000000,50.000000,50.000000,50.000000
0,21.271795,0,-1.804421,-0.509781,40.224098,50.000000,50.000000,50.000000,50.000000
0,21.160210,0,-1.866627,0.133791,40.199455,50.000000,50.000000,50.000000,50.000000
0,21.489449,0,-2.110662,0.683815,40.235222,50.000000,50.000000,50.000000,50.000000
0,21.687294,0,-2.031513,1.411164,40.220455,50.000000,50.000000,50.000000,50.000000
0,22.197126,0,-2.159831,1.881754,40.209862,50.000000,50.000000,50.000000,50.000000
0,22.508623,0,-1.955079,2.244285,40.184792,50.000000,50.000000,50.000000,50.000000
0,22.688540,0,-2.074209,2.307831,40.146114,50.000000,50.000000,50.000000,50.000000
0,22.385378,0,-2.735600,2.607747,40.088440,50.000000,50.000000,50.000000,50.000000
0,22.215538,0,-2.524200,2.589042,40.120110,50.000000,50.000000,50.000000,50.000000
0,22.102245,0,-2.924749,2.549592,40.173721,50.000000,50.000000,50.000000,50.000000
0,22.022654,0,-3.353571,2.229339,40.117290,50.000000,50.000000,50.000000,50.000000
0,21.987827,0,-3.142972,2.047834,40.099461,50.000000,50.000000,50.000000,50.000000
0,21.952969,0,-3.514002,2.064069,39.996433,50.000000,50.000000,50.000000,50.000000
0,21.946508,0,-3.643654,1.778132,39.917774,50.000000,50.000000,50.000000,50.000000
0,21.945728,0,-3.422814,1.057389,39.841183,50.000000,50.000000,50.000000,50.000000
0,21.955078,0,-2.808121,0.578455,39.825035,50.000000,50.000000,50.000000,50.000000
0,21.948997,0,-2.995019,0.586304,39.722481,50.000000,50.000000,50.000000,50.000000
0,21.952173,0,-3.033264,0.126796,39.735756,50.000000,50.000000,50.000000,50.000000
0,21.942665,0,-3.237636,-0.412667,39.678757,50.000000,50.000000,50.000000,50.000000
0,21.943569,0,-3.468216,-0.243291,39.680824,50.000000,50.000000,50.000000,50.000000
0,21.945362,0,-3.369017,-0.456917,39.637192,50.000000,50.000000,50.000000,50.000000
0,21.935801,0,-3.860416,-0.419640,39.671070,50.000000,50.000000,50.000000,50.000000
0,21.935114,0,-4.023811,-0.773954,39.626102,50.000000,50.000000,50.000000,50.000000
0,21.923008,0,-4.547080,-0.706605,39.619881,50.000000,50.000000,50.000000,50.000000
0,21.928555,0,-4.452647,-0.804075,39.533630,50.000000,50.000000,50.000000,50.000000
0,21.920448,0,-4.962523,-0.655825,39.473793,50.000000,50.000000,50.000000,50.000000
0,21.929321,0,-4.803327,-0.652711,39.444065,50.000000,50.000000,50.000000,50.000000
0,21.943815,0,-4.388268,-0.751939,39.345764,50.000000,50.000000,50.000000,50.000000
0,21.943657,0,-4.870042,-0.634818,39.322800,50.000000,50.000000,50.000000,50.000000
0,21.954189,0,-4.772667,-0.552291,39.297283,50.000000,50.000000,50.000000,50.000000
0,21.954046,0,-5.466255,0.019172,39.236961,50.000000,50.000000,50.000000,50.000000
0,21.963476,0,-5.054029,-0.038658,39.239311,50.000000,50.000000,50.000000,50.000000
0,21.961443,0,-5.401484,0.148624,39.196865,50.000000,50.000000,50.000000,50.000000
0,21.950560,0,-6.358934,0.867368,39.113472,50.000000,50.000000,50.000000,50.000000
0,21.941950,0,-6.889519,0.770556,39.055679,50.000000,50.000000,50.000000,50.000000
0,21.920710,0,-7.472821,0.482839,38.990917,50.000000,50.000000,50.000000,50.000000
0,21.908947,0,-7.657021,0.720810,38.973610,50.000000,50.000000,50.000000,50.000000
0,21.889187,0,-7.918711,1.353043,38.928711,50.000000,50.000000,50.000000,50.000000
0,21.895836,0,-7.713534,1.407798,38.863888,50.000000,50.000000,50.000000,50.000000
0,21.902710,0,-7.285824,1.272541,38.874077,50.000000,50.000000,50.000000,50.000000
0,21.889473,0,-7.452326,1.201887,38.962395,50.000000,50.000000,50.000000,50.000000
0,21.895941,0,-6.808607,1.439464,38.857403,50.000000,50.000000,50.000000,50.000000
0,22.311735,0,-6.005977,1.408992,38.807808,50.000000,50.000000,50.000000,50.000000
0,22.555496,0,-5.735338,0.801576,38.881824,50.000000,50.000000,50.000000,50.000000
0,22.713799,0,-4.832263,0.592769,38.926441,50.000000,50.000000,50.000000,50.000000
0,22.408154,0,-4.397467,-0.025085,38.937405,50.000000,50.000000,50.000000,50.000000
0,22.231407,0,-3.699653,-0.867842,39.007263,50.000000,50.000000,50.000000,50.000000
0,22.114824,0,-3.542117,-1.152118,38.966072,50.000000,50.000000,50.000000,50.000000
0,22.451954,0,-2.923682,-0.902103,38.905045,50.000000,50.000000,50.000000,50.000000
0,22.661953,0,-2.263819,-1.144458,38.905296,50.000000,50.000000,50.000000,50.000000
0,22.794518,0,-1.091175,-1.171674,38.858986,50.000000,50.000000,50.000000,50.000000
0,22.470709,0,-0.411080,-1.556840,38.816456,50.000000,50.000000,50.000000,50.000000
0,22.279381,0,0.416980,-1.776471,38.746265,50.000000,50.000000,50.000000,50.000000
0,22.159801,0,0.308358,-2.002868,38.719128,50.000000,50.000000,50.000000,50.000000
0,22.092686,0,0.697259,-1.858438,38.683449,50.000000,50.000000,50.000000,50.000000
0,22.049213,0,0.561409,-1.605187,38.660950,50.000000,50.000000,50.000000,50.000000
0,22.016773,0,0.308869,-1.812055,38.730827,50.000000,50.000000,50.000000,50.000000
0,21.588112,0,-0.402610,-2.043951,38.703693,50.000000,50.000000,50.000000,50.000000
0,21.328598,0,-1.180286,-1.631028,38.651283,50.000000,50.000000,50.000000,50.000000
0,21.184425,0,-1.233202,-1.281095,38.603806,50.000000,50.000000,50.000000,50.000000
0,21.493664,0,-1.726650,-0.427434,38.490612,50.000000,50.000000,50.000000,50.000000
0,21.688173,0,-1.522621,-0.228897,38.561588,50.000000,50.000000,50.000000,50.000000
0,21.799019,0,-1.736528,-0.437069,38.520462,50.000000,50.000000,50.000000,50.000000
0,21.859648,0,-1.807058,-1.021222,38.550945,50.000000,50.000000,50.000000,50.000000
0,22.682184,0,-1.894780,-1.948357,38.526535,50.000000,50.000000,50.000000,50.000000
0,23.188749,0,-1.872612,-2.114667,38.600525,50.000000,50.000000,50.000000,50.000000
0,23.477476,0,-2.434440,-2.646159,38.628136,50.000000,50.000000,50.000000,50.000000
0,23.651846,0,-2.588761,-2.976916,38.604301,50.000000,50.000000,50.000000,50.000000
0,23.769581,0,-1.946926,-3.184676,38.709480,50.000000,50.000000,50.000000,50.000000
0,23.848848,0,-1.241343,-2.995083,38.710533,50.000000,50.000000,50.000000,50.000000
0,22.696871,0,-1.373953,-2.707401,38.647045,50.000000,50.000000,50.000000,50.000000
0,22.011847,0,-1.006064,-2.336927,38.722244,50.000000,50.000000,50.000000,50.000000
0,21.597378,0,-1.340524,-2.025566,38.640022,50.000000,50.000000,50.000000,50.000000
0,21.738550,0,-1.784937,-2.059233,38.728340,50.000000,50.000000,50.000000,50.000000
0,21.813152,0,-2.686284,-2.005768,38.638466,50.000000,50.000000,50.000000,50.000000
0,21.870508,0,-2.697472,-1.678434,38.683849,50.000000,50.000000,50.000000,50.000000
0,21.913939,0,-2.520387,-1.076179,38.755322,50.000000,50.000000,50.000000,50.000000
0,21.930620,0,-2.895500,-0.565634,38.709286,50.000000,50.000000,50.000000,50.000000
0,21.949820,0,-2.571665,-0.373868,38.765316,50.000000,50.000000,50.000000,50.000000
0,21.951910,0,-2.708308,-0.452203,38.817795,50.000000,50.000000,50.000000,50.000000
0,21.962385,0,-2.479272,-0.201411,38.818790,50.000000,50.000000,50.000000,50.000000
0,21.968674,0,-2.353820,0.345121,38.891731,50.000000,50.000000,50.000000,50.000000
0,21.965078,0,-2.451581,0.518804,39.003151,50.000000,50.000000,50.000000,50.000000
0,21.965181,0,-2.245606,0.120276,39.051361,50.000000,50.000000,50.000000,50.000000
0,21.971836,0,-1.917542,0.292819,39.041496,50.000000,50.000000,50.000000,50.000000
0,21.971401,0,-1.707653,-0.077272,39.057446,50.000000,50.000000,50.000000,50.000000
0,21.959681,0,-1.997824,-0.544010,39.038837,50.000000,50.000000,50.000000,50.000000
0,21.964100,0,-1.910347,-0.670555,39.017208,50.000000,50.000000,50.000000,50.000000
0,22.358740,0,-2.353672,-0.570747,38.977985,50.000000,50.000000,50.000000,50.000000
0,22.604088,0,-2.370759,-0.145881,38.959747,50.000000,50.000000,50.000000,50.000000
0,22.758154,0,-1.720647,0.133186,38.941673,50.000000,50.000000,50.000000,50.000000
0,22.845312,0,-1.861145,0.001106,38.944912,50.000000,50.000000,50.000000,50.000000
0,22.895857,0,-1.892883,-0.499564,38.939308,50.000000,50.000000,50.000000,50.000000
0,22.923376,0,-2.365344,-0.505501,38.933826,50.000000,50.000000,50.000000,50.000000
0,22.946178,0,-2.120794,-0.956807,38.933220,50.000000,50.000000,50.000000,50.000000
0,22.952227,0,-2.452336,-1.738632,38.918476,50.000000,50.000000,50.000000,50.000000
0,22.950153,0,-2.734274,-1.966342,38.967419,50.000000,50.000000,50.000000,50.000000
0,22.933891,0,-3.765562,-2.171004,38.964622,50.000000,50.000000,50.000000,50.000000
0,22.938295,0,-3.651363,-2.534112,38.983009,50.000000,50.000000,50.000000,50.000000
0,22.549881,0,-3.291574,-2.846004,38.954330,50.000000,50.000000,50.000000,50.000000
0,22.314487,0,-3.425545,-2.834431,38.950451,50.000000,50.000000,50.000000,50.000000
0,22.181021,0,-2.982474,-2.942285,38.942711,50.000000,50.000000,50.000000,50.000000
0,22.100903,0,-2.383197,-3.272239,38.925632,50.000000,50.000000,50.000000,50.000000
0,22.045801,0,-2.768749,-3.394607,38.824135,50.000000,50.000000,50.000000,50.000000
0,22.015415,0,-2.527565,-3.871581,38.826279,50.000000,50.000000,50.000000,50.000000
0,21.996485,0,-2.724460,-3.773288,38.787495,50.000000,50.000000,50.000000,50.000000
0,21.986958,0,-2.773213,-3.901657,38.880241,50.000000,50.000000,50.000000,50.000000
0,21.979580,0,-3.185689,-3.451283,38.851856,50.000000,50.000000,50.000000,50.000000
0,21.963520,0,-3.917272,-3.353477,38.825890,50.000000,50.000000,50.000000,50.000000
0,21.964079,0,-3.908388,-2.872001,38.810425,50.000000,50.000000,50.000000,50.000000
0,21.957081,0,-4.060154,-2.712771,38.774162,50.000000,50.000000,50.000000,50.000000
0,21.958220,0,-3.925174,-2.817247,38.757957,50.000000,50.000000,50.000000,50.000000
0,21.968168,0,-3.130944,-2.651058,38.811096,50.000000,50.000000,50.000000,50.000000
0,21.969385,0,-2.968173,-2.126576,38.771179,50.000000,50.000000,50.000000,50.000000
0,21.970779,0,-2.674075,-2.268742,38.810787,50.000000,50.000000,50.000000,50.000000
0,21.969704,0,-1.855989,-2.627855,38.836712,50.000000,50.000000,50.000000,50.000000
0,21.976748,0,-0.991266,-2.653906,38.890930,50.000000,50.000000,50.000000,50.000000
0,21.982616,0,-0.294296,-2.333961,38.980209,50.000000,50.000000,50.000000,50.000000
0,22.385082,0,0.111450,-2.157498,38.929817,50.000000,50.000000,50.000000,50.000000
0,22.618603,0,0.034303,-2.532701,38.966331,50.000000,50.000000,50.000000,50.000000
0,22.766020,0,0.512241,-2.524631,38.993217,50.000000,50.000000,50.000000,50.000000
0,22.448170,0,0.969358,-2.631097,38.999878,50.000000,50.000000,50.000000,50.000000
0,22.250174,0,1.855110,-2.986235,39.113518,50.000000,50.000000,50.000000,50.000000
0,22.135073,0,2.048457,-3.087637,39.203362,50.000000,50.000000,50.000000,50.000000
0,22.056175,0,2.445773,-3.540774,39.320244,50.000000,50.000000,50.000000,50.000000
0,22.001280,0,3.234637,-3.755804,39.391766,50.000000,50.000000,50.000000,50.000000
0,21.962332,0,3.366145,-4.205579,39.411312,50.000000,50.000000,50.000000,50.000000
0,21.921597,0,3.942773,-4.853699,39.454010,50.000000,50.000000,50.000000,50.000000
0,21.507418,0,3.648187,-5.305975,39.482483,50.000000,50.000000,50.000000,50.000000
0,21.243879,0,3.497769,-6.006746,39.537659,50.000000,50.000000,50.000000,50.000000
0,23.874928,0,2.883102,-6.405887,39.492241,50.000000,50.000000,50.000000,50.000000
0,25.468227,0,2.682435,-6.249979,39.496517,50.000000,50.000000,50.000000,50.000000
0,26.444115,0,2.199547,-5.804589,39.465130,50.000000,50.000000,50.000000,50.000000
0,27.012535,0,1.539187,-5.849063,39.429173,50.000000,50.000000,50.000000,50.000000
0,25.375416,0,0.908783,-5.638907,39.352722,50.000000,50.000000,50.000000,50.000000
0,24.386316,0,0.504985,-5.515630,39.382885,50.000000,50.000000,50.000000,50.000000
0,23.786484,0,0.991318,-5.667969,39.392097,50.000000,50.000000,50.000000,50.000000
0,23.436390,0,0.442233,-5.450552,39.380898,50.000000,50.000000,50.000000,50.000000
0,23.237968,0,-0.008998,-4.780491,39.346504,50.000000,50.000000,50.000000,50.000000
0,23.113415,0,0.375394,-4.673237,39.344067,50.000000,50.000000,50.000000,50.000000
0,23.042536,0,0.016422,-4.516464,39.317753,50.000000,50.000000,50.000000,50.000000
0,22.997923,0,0.315460,-4.400722,39.288818,50.000000,50.000000,50.000000,50.000000
0,22.974310,0,-0.195048,-4.023540,39.230480,50.000000,50.000000,50.000000,50.000000
0,22.959536,0,0.241451,-3.897924,39.191586,50.000000,50.000000,50.000000,50.000000
0,22.957525,0,0.013133,-3.511968,39.085556,50.000000,50.000000,50.000000,50.000000
0,22.954308,0,0.180236,-3.272303,39.001965,50.000000,50.000000,50.000000,50.000000
0,22.954218,0,-0.192082,-2.984012,38.956291,50.000000,50.000000,50.000000,50.000000
0,22.558081,0,-0.566708,-2.696164,38.850281,50.000000,50.000000,50.000000,50.000000
0,22.328262,0,-0.808102,-1.958541,38.836449,50.000000,50.000000,50.000000,50.000000
0,22.187462,0,-1.362809,-1.240491,38.835415,50.000000,50.000000,50.000000,50.000000
0,22.092642,0,-2.007756,-0.972306,38.802761,50.000000,50.000000,50.000000,50.000000
0,22.045704,0,-1.886640,-0.862233,38.731880,50.000000,50.000000,50.000000,50.000000
0,22.008482,0,-2.483283,-0.495497,38.674980,50.000000,50.000000,50.000000,50.000000
0,22.391563,0,-2.326268,-0.635291,38.654621,50.000000,50.000000,50.000000,50.000000
0,22.610756,0,-2.676726,-0.874145,38.683167,50.000000,50.000000,50.000000,50.000000
0,22.742868,0,-2.784626,-1.174223,38.671108,50.000000,50.000000,50.000000,50.000000
0,22.831161,0,-2.450522,-1.472014,38.721931,50.000000,50.000000,50.000000,50.000000
0,22.876663,0,-2.646093,-1.644110,38.712059,50.000000,50.000000,50.000000,50.000000
0,22.914068,0,-2.315928,-1.760005,38.730579,50.000000,50.000000,50.000000,50.000000
0,22.542797,0,-1.780131,-1.671507,38.790699,50.000000,50.000000,50.000000,50.000000
0,22.319635,0,-1.741213,-1.404530,38.863987,50.000000,50.000000,50.000000,50.000000
0,22.182899,0,-1.645855,-1.393642,38.836514,50.000000,50.000000,50.000000,50.000000
0,22.497732,0,-1.330703,-1.646742,38.865070,50.000000,50.000000,50.000000,50.000000
0,22.689445,0,-0.456924,-1.757743,38.944805,50.000000,50.000000,50.000000,50.000000
0,22.807755,0,-0.638719,-1.599519,38.880329,50.000000,50.000000,50.000000,50.000000
0,22.481646,0,-0.384205,-1.254126,38.877220,50.000000,50.000000,50.000000,50.000000
0,22.279829,0,0.185504,-1.266649,38.907555,50.000000,50.000000,50.000000,50.000000
0,22.162804,0,0.113400,-1.422032,38.923431,50.000000,50.000000,50.000000,50.000000
0,22.095554,0,0.284272,-1.140659,38.924225,50.000000,50.000000,50.000000,50.000000
0,22.053535,0,-0.149613,-1.381742,38.956333,50.000000,50.000000,50.000000,50.000000
0,22.031693,0,-0.633012,-1.142188,39.051392,50.000000,50.000000,50.000000,50.000000
0,22.016813,0,-0.293148,-1.090809,39.084618,50.000000,50.000000,50.000000,50.000000
0,22.404804,0,-0.226986,-1.704711,39.115726,50.000000,50.000000,50.000000,50.000000
0,22.635593,0,-0.525946,-2.303178,39.149673,50.000000,50.000000,50.000000,50.000000
0,22.772785,0,-0.243943,-2.663657,39.196537,50.000000,50.000000,50.000000,50.000000
0,22.446693,0,0.473555,-3.167810,39.234867,50.000000,50.000000,50.000000,50.000000
0,22.253897,0,0.515352,-3.690851,39.184395,50.000000,50.000000,50.000000,50.000000
0,22.130713,0,0.606744,-4.103131,39.266918,50.000000,50.000000,50.000000,50.000000
0,22.067026,0,0.643409,-4.175297,39.389587,50.000000,50.000000,50.000000,50.000000
0,22.035547,0,0.292949,-3.666068,39.377922,50.000000,50.000000,50.000000,50.000000
0,22.015366,0,-0.255389,-3.542364,39.456642,50.000000,50.000000,50.000000,50.000000
0,22.001375,0,-0.125006,-3.622056,39.557396,50.000000,50.000000,50.000000,50.000000
0,21.984156,0,-0.248204,-4.079598,39.502991,50.000000,50.000000,50.000000,50.000000
0,21.967251,0,0.324156,-4.458701,39.459457,50.000000,50.000000,50.000000,50.000000
0,21.944242,0,0.620404,-5.346132,39.482559,50.000000,50.000000,50.000000,50.000000
0,21.934284,0,0.095054,-5.398334,39.324467,50.000000,50.000000,50.000000,50.000000
0,21.940636,0,0.310504,-5.130449,39.355164,50.000000,50.000000,50.000000,50.000000
0,21.950518,0,0.702374,-4.597965,39.291325,50.000000,50.000000,50.000000,50.000000
0,21.957291,0,0.604988,-4.191886,39.186272,50.000000,50.000000,50.000000,50.000000
0,21.962727,0,0.205315,-3.808464,39.192650,50.000000,50.000000,50.000000,50.000000
0,21.973045,0,0.093288,-3.152588,39.066540,50.000000,50.000000,50.000000,50.000000
0,21.577795,0,-0.240128,-2.616513,39.054661,50.000000,50.000000,50.000000,50.000000
0,21.342884,0,-0.337204,-1.757601,39.107891,50.000000,50.000000,50.000000,50.000000
0,21.203901,0,-0.241038,-0.852279,39.079700,50.000000,50.000000,50.000000,50.000000
0,20.720619,0,-0.408975,-0.755591,39.080231,50.000000,50.000000,50.000000,50.000000
0,20.428501,0,-0.353885,-1.155538,39.124916,50.000000,50.000000,50.000000,50.000000
0,20.251183,0,-0.849824,-1.027499,39.074936,50.000000,50.000000,50.000000,50.000000
0,11.351100,0,-0.775260,-1.277467,39.107788,51.000000,50.000000,50.000000,50.000000
0,6.011080,0,-0.263924,-1.512930,39.217751,51.000000,51.000000,51.000000,51.000000
0,2.807716,0,-0.198382,-2.090152,39.244873,51.000000,51.000000,51.000000,51.000000
0,0.885913,0,0.326527,-2.338542,39.358738,51.000000,51.000000,51.000000,51.000000
0,-0.267675,0,0.017477,-2.235891,39.295742,51.000000,51.000000,51.000000,51.000000
0,-0.958949,0,-0.152262,-2.784994,39.313290,51.000000,51.000000,51.000000,51.000000
0,-1.374015,0,0.124130,-2.792394,39.377777,51.000000,51.000000,51.000000,51.000000
0,-1.622841,0,0.736402,-2.748394,39.411098,51.000000,51.000000,51.000000,51.000000
0,-1.772335,0,0.878985,-2.951636,39.385525,51.000000,51.000000,51.000000,51.000000
0,10.115043,0,0.355801,-3.135059,39.346138,51.000000,51.000000,50.000000,50.000000
0,17.240541,0,-0.089630,-3.188582,39.305691,50.000000,50.000000,50.000000,50.000000
0,21.529053,0,0.074441,-2.868152,39.213326,50.000000,50.000000,50.000000,50.000000
0,22.112478,0,0.260344,-2.154986,39.247467,50.000000,50.000000,50.000000,50.000000
0,22.455471,0,0.210523,-1.917882,39.323116,50.000000,50.000000,50.000000,50.000000
0,22.652075,0,0.031143,-1.871029,39.302162,50.000000,50.000000,50.000000,50.000000
0,22.775818,0,0.203939,-1.888894,39.249878,50.000000,50.000000,50.000000,50.000000
0,22.846148,0,-0.142256,-1.686333,39.144203,50.000000,50.000000,50.000000,50.000000
0,22.881348,0,-0.740399,-1.477850,39.025276,50.000000,50.000000,50.000000,50.000000
0,22.914316,0,-0.390669,-1.368544,39.039486,50.000000,50.000000,50.000000,50.000000
0,22.925947,0,-1.028681,-0.967924,38.929504,50.000000,50.000000,50.000000,50.000000
0,22.941526,0,-0.925977,-1.099060,38.921497,50.000000,50.000000,50.000000,50.000000
0,22.945312,0,-1.086413,-1.037199,38.970303,50.000000,50.000000,50.000000,50.000000
0,22.538731,0,-2.115137,-1.219133,38.984985,50.000000,50.000000,50.000000,50.000000
0,22.285576,0,-2.825418,-1.903873,38.986362,50.000000,50.000000,50.000000,50.000000
0,22.139460,0,-3.480110,-2.187158,38.980949,50.000000,50.000000,50.000000,50.000000
0,22.065557,0,-3.758318,-2.077949,38.918083,50.000000,50.000000,50.000000,50.000000
0,22.029688,0,-4.059145,-2.302135,38.885738,50.000000,50.000000,50.000000,50.000000
0,22.006733,0,-4.657058,-2.115560,38.871048,50.000000,50.000000,50.000000,50.000000
0,21.986042,0,-5.498551,-1.789446,38.819756,50.000000,50.000000,50.000000,50.000000
0,21.982149,0,-5.585915,-1.960630,38.737846,50.000000,50.000000,50.000000,50.000000
0,21.984613,0,-5.569210,-2.371145,38.697224,50.000000,50.000000,50.000000,50.000000
0,21.984200,0,-5.686483,-2.189086,38.668324,50.000000,50.000000,50.000000,50.000000
0,21.988333,0,-5.228038,-2.344925,38.641476,50.000000,50.000000,50.000000,50.000000
0,21.984949,0,-5.341669,-2.408087,38.608433,50.000000,50.000000,50.000000,50.000000
0,21.976946,0,-5.268588,-2.997159,38.531799,50.000000,50.000000,50.000000,50.000000
0,21.978865,0,-4.576207,-3.158853,38.522247,50.000000,50.000000,50.000000,50.000000
0,21.981386,0,-3.850224,-2.976973,38.494835,50.000000,50.000000,50.000000,50.000000
0,21.974121,0,-3.130727,-3.169506,38.478771,50.000000,50.000000,50.000000,50.000000
0,21.973583,0,-2.862770,-3.218963,38.422211,50.000000,50.000000,50.000000,50.000000
0,21.965078,0,-2.410586,-3.507362,38.398708,50.000000,50.000000,50.000000,50.000000
0,21.966841,0,-1.458763,-3.145828,38.441116,50.000000,50.000000,50.000000,50.000000
0,21.964140,0,-0.439263,-2.648863,38.547512,50.000000,50.000000,50.000000,50.000000
0,21.971514,0,0.096009,-2.031695,38.632164,50.000000,50.000000,50.000000,50.000000
0,21.972752,0,1.076504,-1.459043,38.689014,50.000000,50.000000,50.000000,50.000000
0,21.973667,0,1.360613,-1.160853,38.654774,50.000000,50.000000,50.000000,50.000000
0,21.981081,0,1.388585,-0.682278,38.728756,50.000000,50.000000,50.000000,50.000000
0,21.978832,0,1.518627,-0.786622,38.723881,50.000000,50.000000,50.000000,50.000000
0,21.983957,0,1.302534,-0.373689,38.678173,50.000000,50.000000,50.000000,50.000000
0,21.990015,0,1.370312,0.478695,38.681519,50.000000,50.000000,50.000000,50.000000
0,21.991005,0,1.285664,0.351530,38.742027,50.000000,50.000000,50.000000,50.000000
0,21.985552,0,1.253055,-0.157915,38.777908,50.000000,50.000000,50.000000,50.000000
0,21.972866,0,1.456812,-0.829258,38.741978,50.000000,50.000000,50.000000,50.000000
0,21.970886,0,1.832178,-0.918317,38.720428,50.000000,50.000000,50.000000,50.000000
0,21.958086,0,2.080900,-1.483757,38.792171,50.000000,50.000000,50.000000,50.000000
0,21.962173,0,2.224184,-1.386631,38.865688,50.000000,50.000000,50.000000,50.000000
0,21.953346,0,2.678498,-1.729480,38.883698,50.000000,50.000000,50.000000,50.000000
0,21.956108,0,2.176218,-1.948411,38.866638,50.000000,50.000000,50.000000,50.000000
0,21.945707,0,2.226115,-2.549953,38.898926,50.000000,50.000000,50.000000,50.000000
0,21.952368,0,1.910786,-2.461366,38.882153,50.000000,50.000000,50.000000,50.000000
0,21.953794,0,2.267757,-2.369655,38.949558,50.000000,50.000000,50.000000,50.000000
0,21.964502,0,1.913524,-1.928139,38.924938,50.000000,50.000000,50.000000,50.000000
0,21.964626,0,2.448616,-1.876827,38.966068,50.000000,50.000000,50.000000,50.000000
0,21.952509,0,3.103369,-1.965610,38.949635,50.000000,50.000000,50.000000,50.000000
0,21.957598,0,2.890142,-1.896507,38.907249,50.000000,50.000000,50.000000,50.000000
0,21.953159,0,3.140094,-2.556997,38.960056,50.000000,50.000000,50.000000,50.000000
0,21.961077,0,2.674231,-2.692422,38.858814,50.000000,50.000000,50.000000,50.000000
0,21.969284,0,2.699605,-2.477405,38.986935,50.000000,50.000000,50.000000,50.000000
0,21.978270,0,2.295938,-2.372933,38.947872,50.000000,50.000000,50.000000,50.000000
0,21.979197,0,2.494341,-2.183017,38.983349,50.000000,50.000000,50.000000,50.000000
0,21.973686,0,3.135885,-1.873189,39.031979,50.000000,50.000000,50.000000,50.000000
0,21.978611,0,3.278648,-1.848391,39.187500,50.000000,50.000000,50.000000,50.000000
0,21.981207,0,3.004141,-2.093016,39.231583,50.000000,50.000000,50.000000,50.000000
0,21.985254,0,2.617285,-2.193674,39.270378,50.000000,50.000000,50.000000,50.000000
0,21.990835,0,2.120714,-1.763275,39.313137,50.000000,50.000000,50.000000,50.000000
0,21.992310,0,2.290411,-1.674253,39.380596,50.000000,50.000000,50.000000,50.000000
0,21.993155,0,2.481732,-1.086912,39.402573,50.000000,50.000000,50.000000,50.000000
0,21.993542,0,2.382523,-0.399654,39.430187,50.000000,50.000000,50.000000,50.000000
0,21.993389,0,2.852956,-0.276971,39.561256,50.000000,50.000000,50.000000,50.000000
0,21.992519,0,2.680317,0.492933,39.551197,50.000000,50.000000,50.000000,50.000000
0,21.989817,0,3.071978,0.750936,39.634243,50.000000,50.000000,50.000000,50.000000
0,21.989082,0,2.713140,1.392648,39.588089,50.000000,50.000000,50.000000,50.000000
0,21.984875,0,3.105490,1.650440,39.601494,50.000000,50.000000,50.000000,50.000000
0,21.979734,0,3.554088,1.158989,39.597416,50.000000,50.000000,50.000000,50.000000
0,21.972326,0,3.966574,0.454048,39.756851,50.000000,50.000000,50.000000,50.000000
0,21.977076,0,3.478986,0.352087,39.775078,50.000000,50.000000,50.000000,50.000000
0,21.973125,0,3.576881,0.516527,39.767677,50.000000,50.000000,50.000000,50.000000
0,21.977652,0,3.149737,0.773987,39.833977,50.000000,50.000000,50.000000,50.000000
0,21.972462,0,3.190026,1.112137,39.815109,50.000000,50.000000,50.000000,50.000000
0,21.970798,0,2.964988,1.499901,39.943470,50.000000,50.000000,50.000000,50.000000
0,21.968468,0,3.080007,1.309324,40.072662,50.000000,50.000000,50.000000,50.000000
0,21.974815,0,2.667589,1.186699,40.167179,50.000000,50.000000,50.000000,50.000000
0,21.975092,0,2.206203,1.580270,40.246506,50.000000,50.000000,50.000000,50.000000
0,21.978405,0,2.124688,1.245185,40.347790,50.000000,50.000000,50.000000,50.000000
0,21.973852,0,2.165759,1.457697,40.335495,50.000000,50.000000,50.000000,50.000000
0,21.977285,0,1.850266,1.425706,40.380814,50.000000,50.000000,50.000000,50.000000
0,21.980762,0,2.034931,0.934500,40.498135,50.000000,50.000000,50.000000,50.000000
0,21.985620,0,1.392951,0.874459,40.491970,50.000000,50.000000,50.000000,50.000000
0,21.983593,0,1.576189,0.902409,40.504753,50.000000,50.000000,50.000000,50.000000
0,21.976509,0,2.372183,0.748598,40.469879,50.000000,50.000000,50.000000,50.000000
0,21.978905,0,2.300657,0.828182,40.504665,50.000000,50.000000,50.000000,50.000000
0,21.972462,0,2.940193,0.848238,40.547508,50.000000,50.000000,50.000000,50.000000
0,21.957787,0,3.409206,0.897320,40.518864,50.000000,50.000000,50.000000,50.000000
0,21.936836,0,4.404581,0.600666,40.451904,50.000000,50.000000,50.000000,50.000000
0,21.928701,0,4.745606,0.091538,40.481041,50.000000,50.000000,50.000000,50.000000
0,21.910192,0,5.488702,-0.720894,40.527637,50.000000,50.000000,50.000000,50.000000
0,21.890352,0,5.915788,-1.586192,40.651421,50.000000,50.000000,50.000000,50.000000
0,21.856035,0,6.488293,-2.233558,40.676838,50.000000,50.000000,50.000000,50.000000
0,21.857183,0,6.339771,-2.412045,40.690376,50.000000,50.000000,50.000000,50.000000
0,21.836664,0,6.523782,-3.015181,40.794628,50.000000,50.000000,50.000000,50.000000
0,21.811518,0,6.383769,-3.755878,40.828510,50.000000,50.000000,50.000000,50.000000
0,21.813936,0,5.860114,-4.172830,40.735626,50.000000,50.000000,50.000000,50.000000
0,21.813702,0,5.306027,-4.922976,40.748055,50.000000,50.000000,50.000000,50.000000
0,21.812515,0,5.211237,-4.976539,40.798916,50.000000,50.000000,50.000000,50.000000
0,21.833845,0,4.687147,-4.812532,40.816483,50.000000,50.000000,50.000000,50.000000
0,21.865025,0,3.939160,-4.465952,40.853973,50.000000,50.000000,50.000000,50.000000
0,21.895161,0,2.823647,-4.271713,40.785725,50.000000,50.000000,50.000000,50.000000
0,21.924858,0,1.863300,-3.817816,40.671299,50.000000,50.000000,50.000000,50.000000
0,21.943375,0,1.621303,-3.058234,40.656906,50.000000,50.000000,50.000000,50.000000
0,21.947624,0,1.451152,-3.188218,40.547611,50.000000,50.000000,50.000000,50.000000
0,21.939053,0,1.563165,-3.268352,40.485107,50.000000,50.000000,50.000000,50.000000
0,21.942001,0,1.282201,-3.448822,40.500526,50.000000,50.000000,50.000000,50.000000
0,21.939455,0,1.475589,-3.350542,40.567696,50.000000,50.000000,50.000000,50.000000
0,21.949274,0,1.310709,-3.296952,40.595154,50.000000,50.000000,50.000000,50.000000
0,21.942865,0,1.607581,-3.435906,40.607071,50.000000,50.000000,50.000000,50.000000
0,21.949701,0,1.168965,-3.301934,40.578587,50.000000,50.000000,50.000000,50.000000
0,21.961634,0,0.758833,-2.853589,40.566601,50.000000,50.000000,50.000000,50.000000
0,21.974741,0,0.302759,-2.428791,40.532597,50.000000,50.000000,50.000000,50.000000
0,21.977295,0,0.106637,-2.491415,40.544113,50.000000,50.000000,50.000000,50.000000
0,21.984060,0,-0.100359,-2.330772,40.483986,50.000000,50.000000,50.000000,50.000000
0,21.986284,0,-0.800887,-2.327026,40.440777,50.000000,50.000000,50.000000,50.000000
0,21.980118,0,-1.077576,-2.901084,40.326832,50.000000,50.000000,50.000000,50.000000
0,21.980724,0,-1.097524,-3.130443,40.265198,50.000000,50.000000,50.000000,50.000000
0,21.578035,0,-0.468405,-3.178224,40.302784,50.000000,50.000000,50.000000,50.000000
0,21.326494,0,0.435300,-3.493899,40.323799,50.000000,50.000000,50.000000,50.000000
0,21.181677,0,0.492742,-3.491404,40.228111,50.000000,50.000000,50.000000,50.000000
0,21.481522,0,0.730833,-3.860486,40.131374,50.000000,50.000000,50.000000,50.000000
0,21.644957,0,1.163143,-4.543372,40.117710,50.000000,50.000000,50.000000,50.000000
0,21.751316,0,1.118376,-4.688591,40.041222,50.000000,50.000000,50.000000,50.000000
0,21.418734,0,0.685766,-4.794945,40.001507,50.000000,50.000000,50.000000,50.000000
0,21.217754,0,0.020929,-4.548151,39.831913,50.000000,50.000000,50.000000,50.000000
0,21.109180,0,0.055696,-3.898731,39.732185,50.000000,50.000000,50.000000,50.000000
0,21.030005,0,0.036960,-4.183457,39.771729,50.000000,50.000000,50.000000,50.000000
0,20.993574,0,-0.268325,-3.674709,39.675022,50.000000,50.000000,50.000000,50.000000
0,20.565107,0,-0.018053,-3.763615,39.565151,50.000000,50.000000,50.000000,50.000000
0,20.303692,0,0.440458,-3.784508,39.536724,50.000000,50.000000,50.000000,50.000000
0,20.161081,0,0.660408,-3.519927,39.587143,50.000000,50.000000,50.000000,50.000000
0,20.864836,0,0.311212,-3.664862,39.474510,50.000000,50.000000,50.000000,50.000000
0,21.292305,0,-0.385348,-3.324309,39.384640,50.000000,50.000000,50.000000,50.000000
0,21.549698,0,-0.230825,-3.313007,39.428635,50.000000,50.000000,50.000000,50.000000
0,22.095362,0,-0.647662,-3.564123,39.418930,50.000000,50.000000,50.000000,50.000000
0,22.431416,0,-0.865400,-3.495703,39.390709,50.000000,50.000000,50.000000,50.000000
0,22.632318,0,-0.281059,-3.530550,39.394985,50.000000,50.000000,50.000000,50.000000
0,22.357603,0,-0.142049,-3.624747,39.343441,50.000000,50.000000,50.000000,50.000000
0,22.190468,0,-0.551943,-3.628223,39.257011,50.000000,50.000000,50.000000,50.000000
0,22.094654,0,-0.578772,-3.618245,39.292171,50.000000,50.000000,50.000000,50.000000
0,22.041031,0,-0.289101,-3.519964,39.324848,50.000000,50.000000,50.000000,50.000000
0,22.007465,0,-0.382405,-3.464618,39.278271,50.000000,50.000000,50.000000,50.000000
0,21.995258,0,-0.467516,-3.040570,39.375759,50.000000,50.000000,50.000000,50.000000
0,21.993311,0,-0.515650,-2.427669,39.412582,50.000000,50.000000,50.000000,50.000000
0,21.988882,0,-1.103710,-2.230497,39.368011,50.000000,50.000000,50.000000,50.000000
0,21.987764,0,-1.187187,-2.171548,39.475716,50.000000,50.000000,50.000000,50.000000
0,21.991655,0,-1.184908,-1.671816,39.615158,50.000000,50.000000,50.000000,50.000000
0,21.991972,0,-0.820481,-1.162214,39.737766,50.000000,50.000000,50.000000,50.000000
0,21.987280,0,0.013819,-0.643812,39.801987,50.000000,50.000000,50.000000,50.000000
0,21.989931,0,0.017183,-0.536725,39.936871,50.000000,50.000000,50.000000,50.000000
0,21.987602,0,0.027236,-0.850505,39.941483,50.000000,50.000000,50.000000,50.000000
0,21.986334,0,-0.192517,-1.277151,40.029613,50.000000,50.000000,50.000000,50.000000
0,21.977074,0,-0.062640,-1.723113,39.997169,50.000000,50.000000,50.000000,50.000000
0,21.975132,0,0.523833,-1.756294,40.172115,50.000000,50.000000,50.000000,50.000000
0,21.970530,0,1.184489,-1.410412,40.287380,50.000000,50.000000,50.000000,50.000000
0,21.971729,0,1.329221,-1.408285,40.392292,50.000000,50.000000,50.000000,50.000000
0,21.971050,0,1.196031,-1.600949,40.454063,50.000000,50.000000,50.000000,50.000000
0,21.974751,0,0.733686,-1.405969,40.425228,50.000000,50.000000,50.000000,50.000000
0,21.973749,0,0.758293,-1.358504,40.412674,50.000000,50.000000,50.000000,50.000000
0,21.979616,0,0.837311,-1.011941,40.458599,50.000000,50.000000,50.000000,50.000000
0,21.975454,0,0.910055,-1.256746,40.448925,50.000000,50.000000,50.000000,50.000000
0,21.961592,0,0.927641,-1.878855,40.429375,50.000000,50.000000,50.000000,50.000000
0,21.962847,0,0.747626,-1.924844,40.366558,50.000000,50.000000,50.000000,50.000000
